{"type" : "FeatureCollection", "features" : [{"type":"Feature","geometry":{"type":"Point","coordinates":[140.02481,35.68377]},"properties":{"id":7694,"klass":"Station","name":"Keisei Tsudanuma","opening":1921,"buildstart":1921,"closure":999999,"lines":[{"line":"Chiba Line","line_url_name":"629-chiba-line","system":"Keisei"}]}}, {"type":"Feature","geometry":{"type":"Point","coordinates":[140.04215,35.6726]},"properties":{"id":7695,"klass":"Station","name":"Keisei Makuhari-Hongo","opening":1991,"buildstart":1991,"closure":999999,"lines":[{"line":"Chiba Line","line_url_name":"629-chiba-line","system":"Keisei"}]}}, {"type":"Feature","geometry":{"type":"Point","coordinates":[140.05608,35.66056]},"properties":{"id":7696,"klass":"Station","name":"Keisei Makuhari","opening":1921,"buildstart":1921,"closure":999999,"lines":[{"line":"Chiba Line","line_url_name":"629-chiba-line","system":"Keisei"}]}}, {"type":"Feature","geometry":{"type":"Point","coordinates":[140.0663,35.65263]},"properties":{"id":7697,"klass":"Station","name":"Kemigawa","opening":1921,"buildstart":1921,"closure":999999,"lines":[{"line":"Chiba Line","line_url_name":"629-chiba-line","system":"Keisei"}]}}, {"type":"Feature","geometry":{"type":"Point","coordinates":[140.08561,35.6378]},"properties":{"id":7698,"klass":"Station","name":"Keisei Inage","opening":1921,"buildstart":1921,"closure":999999,"lines":[{"line":"Chiba Line","line_url_name":"629-chiba-line","system":"Keisei"}]}}, {"type":"Feature","geometry":{"type":"Point","coordinates":[140.09754,35.62492]},"properties":{"id":7699,"klass":"Station","name":"Midoridai","opening":1923,"buildstart":1923,"closure":999999,"lines":[{"line":"Chiba Line","line_url_name":"629-chiba-line","system":"Keisei"}]}}, {"type":"Feature","geometry":{"type":"Point","coordinates":[140.10275,35.61773]},"properties":{"id":7700,"klass":"Station","name":"Nishi-Nobuto","opening":1922,"buildstart":1922,"closure":999999,"lines":[{"line":"Chiba Line","line_url_name":"629-chiba-line","system":"Keisei"}]}}, {"type":"Feature","geometry":{"type":"Point","coordinates":[140.10842,35.61244]},"properties":{"id":7701,"klass":"Station","name":"Shin-Chiba","opening":1923,"buildstart":1923,"closure":999999,"lines":[{"line":"Chiba Line","line_url_name":"629-chiba-line","system":"Keisei"}]}}, {"type":"Feature","geometry":{"type":"Point","coordinates":[140.11416,35.61168]},"properties":{"id":7702,"klass":"Station","name":"Keisei Chiba","opening":1967,"buildstart":1967,"closure":999999,"lines":[{"line":"Chiba Line","line_url_name":"629-chiba-line","system":"Keisei"}]}}, {"type":"Feature","geometry":{"type":"Point","coordinates":[140.11791,35.60735]},"properties":{"id":7703,"klass":"Station","name":"Chiba-Chuo","opening":1921,"buildstart":1921,"closure":999999,"lines":[{"line":"Chiba Line","line_url_name":"629-chiba-line","system":"Keisei"}]}}, {"type":"Feature","geometry":{"type":"Point","coordinates":[139.40734,35.33084]},"properties":{"id":7704,"klass":"Station","name":"Chigasaki","opening":1921,"buildstart":1921,"closure":999999,"lines":[{"line":"Sagami Line","line_url_name":"626-sagami-line","system":"JR East  東日本旅客鉄道"}]}}, {"type":"Feature","geometry":{"type":"Point","coordinates":[139.38737,35.36763]},"properties":{"id":7705,"klass":"Station","name":"Samukawa","opening":1921,"buildstart":1921,"closure":999999,"lines":[{"line":"Sagami Line","line_url_name":"626-sagami-line","system":"JR East  東日本旅客鉄道"}]}}, {"type":"Feature","geometry":{"type":"Point","coordinates":[139.37838,35.3949]},"properties":{"id":7706,"klass":"Station","name":"Kurami","opening":1926,"buildstart":1926,"closure":999999,"lines":[{"line":"Sagami Line","line_url_name":"626-sagami-line","system":"JR East  東日本旅客鉄道"}]}}, {"type":"Feature","geometry":{"type":"Point","coordinates":[139.37859,35.44371]},"properties":{"id":7707,"klass":"Station","name":"Atsugi","opening":1926,"buildstart":1926,"closure":999999,"lines":[{"line":"Sagami Line","line_url_name":"626-sagami-line","system":"JR East  東日本旅客鉄道"}]}}, {"type":"Feature","geometry":{"type":"Point","coordinates":[139.40779,35.33915]},"properties":{"id":7709,"klass":"Station","name":"Kita-Chigasaki","opening":1940,"buildstart":1940,"closure":999999,"lines":[{"line":"Sagami Line","line_url_name":"626-sagami-line","system":"JR East  東日本旅客鉄道"}]}}, {"type":"Feature","geometry":{"type":"Point","coordinates":[139.37969,35.38184]},"properties":{"id":7711,"klass":"Station","name":"Miyayama","opening":1931,"buildstart":1931,"closure":999999,"lines":[{"line":"Sagami Line","line_url_name":"626-sagami-line","system":"JR East  東日本旅客鉄道"}]}}, {"type":"Feature","geometry":{"type":"Point","coordinates":[139.3772,35.42068]},"properties":{"id":7713,"klass":"Station","name":"Shake","opening":1926,"buildstart":1926,"closure":999999,"lines":[{"line":"Sagami Line","line_url_name":"626-sagami-line","system":"JR East  東日本旅客鉄道"}]}}, {"type":"Feature","geometry":{"type":"Point","coordinates":[139.79752,35.67762]},"properties":{"id":9191,"klass":"Station","name":"Fukagawa-nichome","opening":1908,"buildstart":1908,"closure":1972,"lines":[{"line":"Takahashi Line","line_url_name":"804-takahashi-line","system":"Tokyo Toden"}]}}, {"type":"Feature","geometry":{"type":"Point","coordinates":[139.34489,35.59483]},"properties":{"id":7708,"klass":"Station","name":"Hashimoto","opening":1931,"buildstart":1931,"closure":999999,"lines":[{"line":"Sagami Line","line_url_name":"626-sagami-line","system":"JR East  東日本旅客鉄道"}]}}, {"type":"Feature","geometry":{"type":"Point","coordinates":[139.70275,35.60486]},"properties":{"id":6008,"klass":"Station","name":"Hatanodai","opening":1927,"buildstart":1927,"closure":1963,"lines":[{"line":"Oimachi Line","line_url_name":"442-oimachi-line","system":"Tokyu"}]}}, {"type":"Feature","geometry":{"type":"Point","coordinates":[139.39998,35.35615]},"properties":{"id":7710,"klass":"Station","name":"Kagawa","opening":1921,"buildstart":1921,"closure":999999,"lines":[{"line":"Sagami Line","line_url_name":"626-sagami-line","system":"JR East  東日本旅客鉄道"}]}}, {"type":"Feature","geometry":{"type":"Point","coordinates":[139.38044,35.40645]},"properties":{"id":7712,"klass":"Station","name":"Kadosawabashi","opening":1931,"buildstart":1931,"closure":999999,"lines":[{"line":"Sagami Line","line_url_name":"626-sagami-line","system":"JR East  東日本旅客鉄道"}]}}, {"type":"Feature","geometry":{"type":"Point","coordinates":[139.69339,35.60628]},"properties":{"id":6005,"klass":"Station","name":"Kita-Senzoku","opening":1928,"buildstart":1928,"closure":1963,"lines":[{"line":"Oimachi Line","line_url_name":"442-oimachi-line","system":"Tokyu"}]}}, {"type":"Feature","geometry":{"type":"Point","coordinates":[139.79228,35.71296]},"properties":{"id":6102,"klass":"Station","name":"Asakusa","opening":2005,"buildstart":1997,"closure":999999,"lines":[{"line":"Tsukuba Express","line_url_name":"495-tsukuba-express","system":"Metropolitan Intercity Railway Company"}]}}, {"type":"Feature","geometry":{"type":"Point","coordinates":[139.69341,35.6063]},"properties":{"id":6006,"klass":"Station","name":"Kita-Senzoku","opening":1963,"buildstart":1963,"closure":1979,"lines":[{"line":"Den-en-toshi Line","line_url_name":"439-den-en-toshi-line","system":"Tokyu"}]}}, {"type":"Feature","geometry":{"type":"Point","coordinates":[139.6934,35.60629]},"properties":{"id":6007,"klass":"Station","name":"Kita-Senzoku","opening":1979,"buildstart":1979,"closure":999999,"lines":[{"line":"Oimachi Line","line_url_name":"442-oimachi-line","system":"Tokyu"}]}}, {"type":"Feature","geometry":{"type":"Point","coordinates":[139.70275,35.60487]},"properties":{"id":6009,"klass":"Station","name":"Hatanodai","opening":1963,"buildstart":1963,"closure":1979,"lines":[{"line":"Den-en-toshi Line","line_url_name":"439-den-en-toshi-line","system":"Tokyu"}]}}, {"type":"Feature","geometry":{"type":"Point","coordinates":[139.70274,35.60486]},"properties":{"id":6010,"klass":"Station","name":"Hatanodai","opening":1979,"buildstart":1979,"closure":999999,"lines":[{"line":"Oimachi Line","line_url_name":"442-oimachi-line","system":"Tokyu"}]}}, {"type":"Feature","geometry":{"type":"Point","coordinates":[139.68681,35.6518]},"properties":{"id":6026,"klass":"Station","name":"Ohashi","opening":1907,"buildstart":1907,"closure":1969,"lines":[{"line":"Tamagawa Line (streetcar)","line_url_name":"976-tamagawa-line-(streetcar)","system":"Toyo Rapid Railway"}]}}, {"type":"Feature","geometry":{"type":"Point","coordinates":[139.70758,35.60386]},"properties":{"id":6011,"klass":"Station","name":"Ebaramachi","opening":1927,"buildstart":1927,"closure":1963,"lines":[{"line":"Oimachi Line","line_url_name":"442-oimachi-line","system":"Tokyu"}]}}, {"type":"Feature","geometry":{"type":"Point","coordinates":[139.70758,35.60387]},"properties":{"id":6012,"klass":"Station","name":"Ebaramachi","opening":1963,"buildstart":1963,"closure":1979,"lines":[{"line":"Den-en-toshi Line","line_url_name":"439-den-en-toshi-line","system":"Tokyu"}]}}, {"type":"Feature","geometry":{"type":"Point","coordinates":[139.70758,35.60387]},"properties":{"id":6013,"klass":"Station","name":"Ebaramachi","opening":1979,"buildstart":1979,"closure":999999,"lines":[{"line":"Oimachi Line","line_url_name":"442-oimachi-line","system":"Tokyu"}]}}, {"type":"Feature","geometry":{"type":"Point","coordinates":[139.64401,35.63154]},"properties":{"id":6034,"klass":"Station","name":"Sakura-Shimmachi","opening":1907,"buildstart":1907,"closure":1969,"lines":[{"line":"Tamagawa Line (streetcar)","line_url_name":"976-tamagawa-line-(streetcar)","system":"Toyo Rapid Railway"}]}}, {"type":"Feature","geometry":{"type":"Point","coordinates":[139.71264,35.60574]},"properties":{"id":6014,"klass":"Station","name":"Nakanobu","opening":1927,"buildstart":1927,"closure":1963,"lines":[{"line":"Oimachi Line","line_url_name":"442-oimachi-line","system":"Tokyu"}]}}, {"type":"Feature","geometry":{"type":"Point","coordinates":[139.71263,35.60575]},"properties":{"id":6015,"klass":"Station","name":"Nakanobu","opening":1963,"buildstart":1963,"closure":1979,"lines":[{"line":"Den-en-toshi Line","line_url_name":"439-den-en-toshi-line","system":"Tokyu"}]}}, {"type":"Feature","geometry":{"type":"Point","coordinates":[139.71264,35.60574]},"properties":{"id":6016,"klass":"Station","name":"Nakanobu","opening":1979,"buildstart":1979,"closure":999999,"lines":[{"line":"Oimachi Line","line_url_name":"442-oimachi-line","system":"Tokyu"}]}}, {"type":"Feature","geometry":{"type":"Point","coordinates":[139.63074,35.62057]},"properties":{"id":6035,"klass":"Station","name":"Tamaden-Seta","opening":1907,"buildstart":1907,"closure":1969,"lines":[{"line":"Tamagawa Line (streetcar)","line_url_name":"976-tamagawa-line-(streetcar)","system":"Toyo Rapid Railway"}]}}, {"type":"Feature","geometry":{"type":"Point","coordinates":[139.71832,35.60895]},"properties":{"id":6017,"klass":"Station","name":"Togoshi-koen","opening":1927,"buildstart":1927,"closure":1963,"lines":[{"line":"Oimachi Line","line_url_name":"442-oimachi-line","system":"Tokyu"}]}}, {"type":"Feature","geometry":{"type":"Point","coordinates":[139.71832,35.60896]},"properties":{"id":6018,"klass":"Station","name":"Togoshi-koen","opening":1963,"buildstart":1963,"closure":1979,"lines":[{"line":"Den-en-toshi Line","line_url_name":"439-den-en-toshi-line","system":"Tokyu"}]}}, {"type":"Feature","geometry":{"type":"Point","coordinates":[139.72757,35.89395]},"properties":{"id":6099,"klass":"Station","name":"Urawa-Misono","opening":2001,"buildstart":1995,"closure":999999,"lines":[{"line":"Saitama Rapid Railway Line","line_url_name":"494-saitama-rapid-railway-line","system":"Saitama Railway Corporation"}]}}, {"type":"Feature","geometry":{"type":"Point","coordinates":[139.71833,35.60896]},"properties":{"id":6019,"klass":"Station","name":"Togoshi-koen","opening":1979,"buildstart":1979,"closure":999999,"lines":[{"line":"Oimachi Line","line_url_name":"442-oimachi-line","system":"Tokyu"}]}}, {"type":"Feature","geometry":{"type":"Point","coordinates":[139.59966,35.44667]},"properties":{"id":6082,"klass":"Station","name":"Hodogaya","opening":1980,"buildstart":1980,"closure":999999,"lines":[{"line":"Yokosuka Line","line_url_name":"537-yokosuka-line","system":"JR East  東日本旅客鉄道"},{"line":"Shonan Shinjuku Line","line_url_name":"2366-shonan-shinjuku-line","system":"JR East  東日本旅客鉄道"}]}}, {"type":"Feature","geometry":{"type":"Point","coordinates":[139.72641,35.60873]},"properties":{"id":6020,"klass":"Station","name":"Shimo-Shimmei","opening":1927,"buildstart":1927,"closure":1963,"lines":[{"line":"Oimachi Line","line_url_name":"442-oimachi-line","system":"Tokyu"}]}}, {"type":"Feature","geometry":{"type":"Point","coordinates":[139.72642,35.60875]},"properties":{"id":6021,"klass":"Station","name":"Shimo-Shimmei","opening":1963,"buildstart":1963,"closure":1979,"lines":[{"line":"Den-en-toshi Line","line_url_name":"439-den-en-toshi-line","system":"Tokyu"}]}}, {"type":"Feature","geometry":{"type":"Point","coordinates":[139.72642,35.60874]},"properties":{"id":6022,"klass":"Station","name":"Shimo-Shimmei","opening":1979,"buildstart":1979,"closure":999999,"lines":[{"line":"Oimachi Line","line_url_name":"442-oimachi-line","system":"Tokyu"}]}}, {"type":"Feature","geometry":{"type":"Point","coordinates":[139.66706,35.67362]},"properties":{"id":6038,"klass":"Station","name":"Sasazuka","opening":1913,"buildstart":1913,"closure":999999,"lines":[{"line":"Keio Line","line_url_name":"424-keio-line","system":"Keio"}]}}, {"type":"Feature","geometry":{"type":"Point","coordinates":[139.73438,35.60755]},"properties":{"id":6023,"klass":"Station","name":"Oimachi","opening":1927,"buildstart":1927,"closure":1963,"lines":[{"line":"Oimachi Line","line_url_name":"442-oimachi-line","system":"Tokyu"}]}}, {"type":"Feature","geometry":{"type":"Point","coordinates":[139.73616,35.83088]},"properties":{"id":6095,"klass":"Station","name":"Hatogaya","opening":2001,"buildstart":1995,"closure":999999,"lines":[{"line":"Saitama Rapid Railway Line","line_url_name":"494-saitama-rapid-railway-line","system":"Saitama Railway Corporation"}]}}, {"type":"Feature","geometry":{"type":"Point","coordinates":[139.73438,35.60757]},"properties":{"id":6024,"klass":"Station","name":"Oimachi","opening":1963,"buildstart":1963,"closure":1979,"lines":[{"line":"Den-en-toshi Line","line_url_name":"439-den-en-toshi-line","system":"Tokyu"}]}}, {"type":"Feature","geometry":{"type":"Point","coordinates":[139.67697,35.67685]},"properties":{"id":6037,"klass":"Station","name":"Hatagaya","opening":1913,"buildstart":1913,"closure":1978,"lines":[{"line":"Keio Line","line_url_name":"424-keio-line","system":"Keio"}]}}, {"type":"Feature","geometry":{"type":"Point","coordinates":[139.73438,35.60756]},"properties":{"id":6025,"klass":"Station","name":"Oimachi","opening":1979,"buildstart":1979,"closure":999999,"lines":[{"line":"Oimachi Line","line_url_name":"442-oimachi-line","system":"Tokyu"}]}}, {"type":"Feature","geometry":{"type":"Point","coordinates":[139.55669,35.43033]},"properties":{"id":6083,"klass":"Station","name":"Higashi-Totsuka","opening":1980,"buildstart":1980,"closure":999999,"lines":[{"line":"Yokosuka Line","line_url_name":"537-yokosuka-line","system":"JR East  東日本旅客鉄道"},{"line":"Shonan Shinjuku Line","line_url_name":"2366-shonan-shinjuku-line","system":"JR East  東日本旅客鉄道"}]}}, {"type":"Feature","geometry":{"type":"Point","coordinates":[139.69937,35.68958]},"properties":{"id":6040,"klass":"Station","name":"Shinjuku","opening":1915,"buildstart":1915,"closure":999999,"lines":[{"line":"Keio Line","line_url_name":"424-keio-line","system":"Keio"}]}}, {"type":"Feature","geometry":{"type":"Point","coordinates":[139.54419,35.65189]},"properties":{"id":6041,"klass":"Station","name":"Chofu","opening":1913,"buildstart":1913,"closure":999999,"lines":[{"line":"Keio Line","line_url_name":"424-keio-line","system":"Keio"}]}}, {"type":"Feature","geometry":{"type":"Point","coordinates":[139.34342,35.65771]},"properties":{"id":6043,"klass":"Station","name":"Keio-Hachioji","opening":1925,"buildstart":1925,"closure":999999,"lines":[{"line":"Keio Line","line_url_name":"424-keio-line","system":"Keio"}]}}, {"type":"Feature","geometry":{"type":"Point","coordinates":[139.62249,35.46649]},"properties":{"id":6081,"klass":"Station","name":"Yokohama","opening":1980,"buildstart":1980,"closure":999999,"lines":[{"line":"Yokosuka Line","line_url_name":"537-yokosuka-line","system":"JR East  東日本旅客鉄道"},{"line":"Shonan Shinjuku Line","line_url_name":"2366-shonan-shinjuku-line","system":"JR East  東日本旅客鉄道"},{"line":"Narita Express","line_url_name":"3000-narita-express","system":"JR East  東日本旅客鉄道"}]}}, {"type":"Feature","geometry":{"type":"Point","coordinates":[139.6717,35.55157]},"properties":{"id":6080,"klass":"Station","name":"Shin-Kawasaki","opening":1980,"buildstart":1980,"closure":999999,"lines":[{"line":"Yokosuka Line","line_url_name":"537-yokosuka-line","system":"JR East  東日本旅客鉄道"},{"line":"Shonan Shinjuku Line","line_url_name":"2366-shonan-shinjuku-line","system":"JR East  東日本旅客鉄道"}]}}, {"type":"Feature","geometry":{"type":"Point","coordinates":[139.73989,35.62842]},"properties":{"id":6076,"klass":"Station","name":"Shinagawa","opening":1980,"buildstart":1980,"closure":999999,"lines":[{"line":"Yokosuka Line","line_url_name":"537-yokosuka-line","system":"JR East  東日本旅客鉄道"},{"line":"Narita Express","line_url_name":"3000-narita-express","system":"JR East  東日本旅客鉄道"}]}}, {"type":"Feature","geometry":{"type":"Point","coordinates":[139.73722,35.84298]},"properties":{"id":6096,"klass":"Station","name":"Araijuku","opening":2001,"buildstart":1995,"closure":999999,"lines":[{"line":"Saitama Rapid Railway Line","line_url_name":"494-saitama-rapid-railway-line","system":"Saitama Railway Corporation"}]}}, {"type":"Feature","geometry":{"type":"Point","coordinates":[139.75887,35.66616]},"properties":{"id":6084,"klass":"Station","name":"Shimbashi","opening":1980,"buildstart":1980,"closure":999999,"lines":[{"line":"Yokosuka Line","line_url_name":"537-yokosuka-line","system":"JR East  東日本旅客鉄道"}]}}, {"type":"Feature","geometry":{"type":"Point","coordinates":[139.73038,35.80049]},"properties":{"id":6093,"klass":"Station","name":"Kawaguchi-Motogo","opening":2001,"buildstart":1995,"closure":999999,"lines":[{"line":"Saitama Rapid Railway Line","line_url_name":"494-saitama-rapid-railway-line","system":"Saitama Railway Corporation"}]}}, {"type":"Feature","geometry":{"type":"Point","coordinates":[139.73619,35.81663]},"properties":{"id":6094,"klass":"Station","name":"Minami-Hatogaya","opening":2001,"buildstart":1995,"closure":999999,"lines":[{"line":"Saitama Rapid Railway Line","line_url_name":"494-saitama-rapid-railway-line","system":"Saitama Railway Corporation"}]}}, {"type":"Feature","geometry":{"type":"Point","coordinates":[139.75378,35.85885]},"properties":{"id":6097,"klass":"Station","name":"Tozuka-Angyo","opening":2001,"buildstart":1995,"closure":999999,"lines":[{"line":"Saitama Rapid Railway Line","line_url_name":"494-saitama-rapid-railway-line","system":"Saitama Railway Corporation"}]}}, {"type":"Feature","geometry":{"type":"Point","coordinates":[139.77415,35.69836]},"properties":{"id":6100,"klass":"Station","name":"Akihabara","opening":2005,"buildstart":1997,"closure":999999,"lines":[{"line":"Tsukuba Express","line_url_name":"495-tsukuba-express","system":"Metropolitan Intercity Railway Company"}]}}, {"type":"Feature","geometry":{"type":"Point","coordinates":[139.74457,35.87556]},"properties":{"id":6098,"klass":"Station","name":"Higashi-Kawaguchi","opening":2001,"buildstart":1995,"closure":999999,"lines":[{"line":"Saitama Rapid Railway Line","line_url_name":"494-saitama-rapid-railway-line","system":"Saitama Railway Corporation"}]}}, {"type":"Feature","geometry":{"type":"Point","coordinates":[139.82189,35.78486]},"properties":{"id":6106,"klass":"Station","name":"Rokucho","opening":2005,"buildstart":1997,"closure":999999,"lines":[{"line":"Tsukuba Express","line_url_name":"495-tsukuba-express","system":"Metropolitan Intercity Railway Company"}]}}, {"type":"Feature","geometry":{"type":"Point","coordinates":[139.82035,35.77174]},"properties":{"id":6105,"klass":"Station","name":"Aoi","opening":2005,"buildstart":1997,"closure":999999,"lines":[{"line":"Tsukuba Express","line_url_name":"495-tsukuba-express","system":"Metropolitan Intercity Railway Company"}]}}, {"type":"Feature","geometry":{"type":"Point","coordinates":[139.46569,35.75997]},"properties":{"id":6121,"klass":"Station","name":"Higashi-Murayama","opening":1894,"buildstart":1894,"closure":999999,"lines":[{"line":"Kokubunji Line","line_url_name":"432-kokubunji-line","system":"Seibu Railway"}]}}, {"type":"Feature","geometry":{"type":"Point","coordinates":[139.47702,35.74073]},"properties":{"id":6126,"klass":"Station","name":"Hagiyama","opening":1928,"buildstart":1928,"closure":999999,"lines":[{"line":"Tamako Line","line_url_name":"434-tamako-line","system":"Seibu Railway"}]}}, {"type":"Feature","geometry":{"type":"Point","coordinates":[139.48012,35.72179]},"properties":{"id":6129,"klass":"Station","name":"Hitotsubashi-gakuen","opening":1928,"buildstart":1928,"closure":999999,"lines":[{"line":"Tamako Line","line_url_name":"434-tamako-line","system":"Seibu Railway"}]}}, {"type":"Feature","geometry":{"type":"Point","coordinates":[139.47656,35.73064]},"properties":{"id":6130,"klass":"Station","name":"Ome-kaido","opening":1928,"buildstart":1928,"closure":999999,"lines":[{"line":"Tamako Line","line_url_name":"434-tamako-line","system":"Seibu Railway"}]}}, {"type":"Feature","geometry":{"type":"Point","coordinates":[139.62954,35.6171]},"properties":{"id":6036,"klass":"Station","name":"Minobusan-Betsuin-mae","opening":1933,"buildstart":1933,"closure":1969,"lines":[{"line":"Tamagawa Line (streetcar)","line_url_name":"976-tamagawa-line-(streetcar)","system":"Toyo Rapid Railway"}]}}, {"type":"Feature","geometry":{"type":"Point","coordinates":[139.46736,35.74513]},"properties":{"id":6131,"klass":"Station","name":"Yasaka","opening":1942,"buildstart":1942,"closure":999999,"lines":[{"line":"Tamako Line","line_url_name":"434-tamako-line","system":"Seibu Railway"}]}}, {"type":"Feature","geometry":{"type":"Point","coordinates":[139.44257,35.76617]},"properties":{"id":6128,"klass":"Station","name":"Seibu-Yuenchi","opening":1961,"buildstart":1961,"closure":999999,"lines":[{"line":"Tamako Line","line_url_name":"434-tamako-line","system":"Seibu Railway"}]}}, {"type":"Feature","geometry":{"type":"Point","coordinates":[139.65658,35.6311]},"properties":{"id":6032,"klass":"Station","name":"Komazawa","opening":1907,"buildstart":1907,"closure":1969,"lines":[{"line":"Tamagawa Line (streetcar)","line_url_name":"976-tamagawa-line-(streetcar)","system":"Toyo Rapid Railway"}]}}, {"type":"Feature","geometry":{"type":"Point","coordinates":[139.38018,35.64753]},"properties":{"id":6068,"klass":"Station","name":"Hirayamajoshi-koen","opening":1925,"buildstart":1925,"closure":999999,"lines":[{"line":"Keio Line","line_url_name":"424-keio-line","system":"Keio"}]}}, {"type":"Feature","geometry":{"type":"Point","coordinates":[139.68197,35.64933]},"properties":{"id":6027,"klass":"Station","name":"Tamaden-Ikejiri","opening":1907,"buildstart":1907,"closure":1969,"lines":[{"line":"Tamagawa Line (streetcar)","line_url_name":"976-tamagawa-line-(streetcar)","system":"Toyo Rapid Railway"}]}}, {"type":"Feature","geometry":{"type":"Point","coordinates":[139.55849,35.65026]},"properties":{"id":6055,"klass":"Station","name":"Kokuryo","opening":1913,"buildstart":1913,"closure":999999,"lines":[{"line":"Keio Line","line_url_name":"424-keio-line","system":"Keio"}]}}, {"type":"Feature","geometry":{"type":"Point","coordinates":[139.67779,35.64709]},"properties":{"id":6028,"klass":"Station","name":"Mishuku","opening":1907,"buildstart":1907,"closure":1969,"lines":[{"line":"Tamagawa Line (streetcar)","line_url_name":"976-tamagawa-line-(streetcar)","system":"Toyo Rapid Railway"}]}}, {"type":"Feature","geometry":{"type":"Point","coordinates":[139.66773,35.63928]},"properties":{"id":6029,"klass":"Station","name":"Tamaden-Nakazato","opening":1921,"buildstart":1921,"closure":1969,"lines":[{"line":"Tamagawa Line (streetcar)","line_url_name":"976-tamagawa-line-(streetcar)","system":"Toyo Rapid Railway"}]}}, {"type":"Feature","geometry":{"type":"Point","coordinates":[139.66504,35.63579]},"properties":{"id":6030,"klass":"Station","name":"Kamiuma","opening":1907,"buildstart":1907,"closure":1969,"lines":[{"line":"Tamagawa Line (streetcar)","line_url_name":"976-tamagawa-line-(streetcar)","system":"Toyo Rapid Railway"}]}}, {"type":"Feature","geometry":{"type":"Point","coordinates":[139.55168,35.64991]},"properties":{"id":6056,"klass":"Station","name":"Fuda","opening":1917,"buildstart":1917,"closure":999999,"lines":[{"line":"Keio Line","line_url_name":"424-keio-line","system":"Keio"}]}}, {"type":"Feature","geometry":{"type":"Point","coordinates":[139.66175,35.63353]},"properties":{"id":6031,"klass":"Station","name":"Manaka","opening":1924,"buildstart":1924,"closure":1969,"lines":[{"line":"Tamagawa Line (streetcar)","line_url_name":"976-tamagawa-line-(streetcar)","system":"Toyo Rapid Railway"}]}}, {"type":"Feature","geometry":{"type":"Point","coordinates":[139.66125,35.25705]},"properties":{"id":6090,"klass":"Station","name":"Kinugasa","opening":1944,"buildstart":1944,"closure":999999,"lines":[{"line":"Yokosuka Line","line_url_name":"537-yokosuka-line","system":"JR East  東日本旅客鉄道"}]}}, {"type":"Feature","geometry":{"type":"Point","coordinates":[139.53015,35.65702]},"properties":{"id":6057,"klass":"Station","name":"Nishi-Chofu","opening":1916,"buildstart":1916,"closure":999999,"lines":[{"line":"Keio Line","line_url_name":"424-keio-line","system":"Keio"}]}}, {"type":"Feature","geometry":{"type":"Point","coordinates":[139.68759,35.68119]},"properties":{"id":6039,"klass":"Station","name":"Hatsudai","opening":1914,"buildstart":1914,"closure":1978,"lines":[{"line":"Keio Line","line_url_name":"424-keio-line","system":"Keio"}]}}, {"type":"Feature","geometry":{"type":"Point","coordinates":[139.36603,35.64278]},"properties":{"id":6069,"klass":"Station","name":"Naganuma","opening":1925,"buildstart":1925,"closure":999999,"lines":[{"line":"Keio Line","line_url_name":"424-keio-line","system":"Keio"}]}}, {"type":"Feature","geometry":{"type":"Point","coordinates":[139.48021,35.67218]},"properties":{"id":6042,"klass":"Station","name":"Fuchu","opening":1916,"buildstart":1916,"closure":999999,"lines":[{"line":"Keio Line","line_url_name":"424-keio-line","system":"Keio"}]}}, {"type":"Feature","geometry":{"type":"Point","coordinates":[139.52332,35.66016]},"properties":{"id":6058,"klass":"Station","name":"Tobitakyu","opening":1916,"buildstart":1916,"closure":999999,"lines":[{"line":"Keio Line","line_url_name":"424-keio-line","system":"Keio"}]}}, {"type":"Feature","geometry":{"type":"Point","coordinates":[139.6596,35.67115]},"properties":{"id":6044,"klass":"Station","name":"Daitabashi","opening":1913,"buildstart":1913,"closure":999999,"lines":[{"line":"Keio Line","line_url_name":"424-keio-line","system":"Keio"}]}}, {"type":"Feature","geometry":{"type":"Point","coordinates":[139.6506,35.66837]},"properties":{"id":6045,"klass":"Station","name":"Meidaimae","opening":1913,"buildstart":1913,"closure":999999,"lines":[{"line":"Keio Line","line_url_name":"424-keio-line","system":"Keio"}]}}, {"type":"Feature","geometry":{"type":"Point","coordinates":[139.64253,35.66609]},"properties":{"id":6046,"klass":"Station","name":"Shimo-Takaido","opening":1913,"buildstart":1913,"closure":999999,"lines":[{"line":"Keio Line","line_url_name":"424-keio-line","system":"Keio"}]}}, {"type":"Feature","geometry":{"type":"Point","coordinates":[139.51093,35.66423]},"properties":{"id":6059,"klass":"Station","name":"Musashinodai","opening":1916,"buildstart":1916,"closure":999999,"lines":[{"line":"Keio Line","line_url_name":"424-keio-line","system":"Keio"}]}}, {"type":"Feature","geometry":{"type":"Point","coordinates":[139.63182,35.66757]},"properties":{"id":6047,"klass":"Station","name":"Sakurajosui","opening":1926,"buildstart":1926,"closure":999999,"lines":[{"line":"Keio Line","line_url_name":"424-keio-line","system":"Keio"}]}}, {"type":"Feature","geometry":{"type":"Point","coordinates":[139.62329,35.66884]},"properties":{"id":6048,"klass":"Station","name":"Kami-Kitazawa","opening":1913,"buildstart":1913,"closure":999999,"lines":[{"line":"Keio Line","line_url_name":"424-keio-line","system":"Keio"}]}}, {"type":"Feature","geometry":{"type":"Point","coordinates":[139.5452,35.33728]},"properties":{"id":6085,"klass":"Station","name":"Kita-Kamakura","opening":1927,"buildstart":1927,"closure":999999,"lines":[{"line":"Yokosuka Line","line_url_name":"537-yokosuka-line","system":"JR East  東日本旅客鉄道"}]}}, {"type":"Feature","geometry":{"type":"Point","coordinates":[139.61602,35.66985]},"properties":{"id":6049,"klass":"Station","name":"Hachimanyama","opening":1918,"buildstart":1918,"closure":999999,"lines":[{"line":"Keio Line","line_url_name":"424-keio-line","system":"Keio"}]}}, {"type":"Feature","geometry":{"type":"Point","coordinates":[139.50264,35.66622]},"properties":{"id":6060,"klass":"Station","name":"Tama-reien","opening":1916,"buildstart":1916,"closure":999999,"lines":[{"line":"Keio Line","line_url_name":"424-keio-line","system":"Keio"}]}}, {"type":"Feature","geometry":{"type":"Point","coordinates":[139.60889,35.67066]},"properties":{"id":6050,"klass":"Station","name":"Roka-koen","opening":1913,"buildstart":1913,"closure":999999,"lines":[{"line":"Keio Line","line_url_name":"424-keio-line","system":"Keio"}]}}, {"type":"Feature","geometry":{"type":"Point","coordinates":[139.6001,35.66778]},"properties":{"id":6051,"klass":"Station","name":"Chitose-Karasuyama","opening":1913,"buildstart":1913,"closure":999999,"lines":[{"line":"Keio Line","line_url_name":"424-keio-line","system":"Keio"}]}}, {"type":"Feature","geometry":{"type":"Point","coordinates":[139.35418,35.64455]},"properties":{"id":6070,"klass":"Station","name":"Kitano","opening":1925,"buildstart":1925,"closure":999999,"lines":[{"line":"Keio Line","line_url_name":"424-keio-line","system":"Keio"}]}}, {"type":"Feature","geometry":{"type":"Point","coordinates":[139.58494,35.66233]},"properties":{"id":6052,"klass":"Station","name":"Sengawa","opening":1913,"buildstart":1913,"closure":999999,"lines":[{"line":"Keio Line","line_url_name":"424-keio-line","system":"Keio"}]}}, {"type":"Feature","geometry":{"type":"Point","coordinates":[139.49527,35.66886]},"properties":{"id":6061,"klass":"Station","name":"Higashi-Fuchu","opening":1916,"buildstart":1916,"closure":999999,"lines":[{"line":"Keio Line","line_url_name":"424-keio-line","system":"Keio"}]}}, {"type":"Feature","geometry":{"type":"Point","coordinates":[139.57526,35.65811]},"properties":{"id":6053,"klass":"Station","name":"Tsutsujigaoka","opening":1913,"buildstart":1913,"closure":999999,"lines":[{"line":"Keio Line","line_url_name":"424-keio-line","system":"Keio"}]}}, {"type":"Feature","geometry":{"type":"Point","coordinates":[139.5667,35.6541]},"properties":{"id":6054,"klass":"Station","name":"Shibasaki","opening":1913,"buildstart":1913,"closure":999999,"lines":[{"line":"Keio Line","line_url_name":"424-keio-line","system":"Keio"}]}}, {"type":"Feature","geometry":{"type":"Point","coordinates":[139.46851,35.6685]},"properties":{"id":6062,"klass":"Station","name":"Bubaigawara","opening":1925,"buildstart":1925,"closure":999999,"lines":[{"line":"Keio Line","line_url_name":"424-keio-line","system":"Keio"}]}}, {"type":"Feature","geometry":{"type":"Point","coordinates":[139.45795,35.65961]},"properties":{"id":6063,"klass":"Station","name":"Nakagawara","opening":1925,"buildstart":1925,"closure":999999,"lines":[{"line":"Keio Line","line_url_name":"424-keio-line","system":"Keio"}]}}, {"type":"Feature","geometry":{"type":"Point","coordinates":[139.69889,35.68859]},"properties":{"id":6071,"klass":"Station","name":"Shinsen-Shinjuku","opening":1978,"buildstart":1978,"closure":999999,"lines":[{"line":"Keio New Line","line_url_name":"531-keio-new-line","system":"Keio"}]}}, {"type":"Feature","geometry":{"type":"Point","coordinates":[139.44737,35.65088]},"properties":{"id":6064,"klass":"Station","name":"Seiseki-Sakuragaoka","opening":1925,"buildstart":1925,"closure":999999,"lines":[{"line":"Keio Line","line_url_name":"424-keio-line","system":"Keio"}]}}, {"type":"Feature","geometry":{"type":"Point","coordinates":[139.43139,35.65743]},"properties":{"id":6065,"klass":"Station","name":"Mogusaen","opening":1925,"buildstart":1925,"closure":999999,"lines":[{"line":"Keio Line","line_url_name":"424-keio-line","system":"Keio"}]}}, {"type":"Feature","geometry":{"type":"Point","coordinates":[139.53135,35.35344]},"properties":{"id":6074,"klass":"Station","name":"Ofuna","opening":1889,"buildstart":1889,"closure":999999,"lines":[{"line":"Yokosuka Line","line_url_name":"537-yokosuka-line","system":"JR East  東日本旅客鉄道"},{"line":"Shonan Shinjuku Line","line_url_name":"2366-shonan-shinjuku-line","system":"JR East  東日本旅客鉄道"},{"line":"Narita Express","line_url_name":"3000-narita-express","system":"JR East  東日本旅客鉄道"}]}}, {"type":"Feature","geometry":{"type":"Point","coordinates":[139.68705,35.68168]},"properties":{"id":6072,"klass":"Station","name":"Hatsudai","opening":1978,"buildstart":1978,"closure":999999,"lines":[{"line":"Keio New Line","line_url_name":"531-keio-new-line","system":"Keio"}]}}, {"type":"Feature","geometry":{"type":"Point","coordinates":[139.39246,35.6551]},"properties":{"id":6067,"klass":"Station","name":"Minamidaira","opening":1926,"buildstart":1926,"closure":999999,"lines":[{"line":"Keio Line","line_url_name":"424-keio-line","system":"Keio"}]}}, {"type":"Feature","geometry":{"type":"Point","coordinates":[139.55048,35.31902]},"properties":{"id":6086,"klass":"Station","name":"Kamakura","opening":1889,"buildstart":1889,"closure":999999,"lines":[{"line":"Yokosuka Line","line_url_name":"537-yokosuka-line","system":"JR East  東日本旅客鉄道"}]}}, {"type":"Feature","geometry":{"type":"Point","coordinates":[139.67681,35.67723]},"properties":{"id":6073,"klass":"Station","name":"Hatagaya","opening":1978,"buildstart":1978,"closure":999999,"lines":[{"line":"Keio New Line","line_url_name":"531-keio-new-line","system":"Keio"}]}}, {"type":"Feature","geometry":{"type":"Point","coordinates":[139.57853,35.29761]},"properties":{"id":6087,"klass":"Station","name":"Zushi","opening":1889,"buildstart":1889,"closure":999999,"lines":[{"line":"Yokosuka Line","line_url_name":"537-yokosuka-line","system":"JR East  東日本旅客鉄道"}]}}, {"type":"Feature","geometry":{"type":"Point","coordinates":[139.65568,35.28399]},"properties":{"id":6075,"klass":"Station","name":"Yokosuka","opening":1889,"buildstart":1889,"closure":999999,"lines":[{"line":"Yokosuka Line","line_url_name":"537-yokosuka-line","system":"JR East  東日本旅客鉄道"}]}}, {"type":"Feature","geometry":{"type":"Point","coordinates":[139.70108,35.23296]},"properties":{"id":6091,"klass":"Station","name":"Kurihama","opening":1944,"buildstart":1944,"closure":999999,"lines":[{"line":"Yokosuka Line","line_url_name":"537-yokosuka-line","system":"JR East  東日本旅客鉄道"}]}}, {"type":"Feature","geometry":{"type":"Point","coordinates":[139.60137,35.29881]},"properties":{"id":6088,"klass":"Station","name":"Higashi-Zushi","opening":1952,"buildstart":1952,"closure":999999,"lines":[{"line":"Yokosuka Line","line_url_name":"537-yokosuka-line","system":"JR East  東日本旅客鉄道"}]}}, {"type":"Feature","geometry":{"type":"Point","coordinates":[139.63697,35.29283]},"properties":{"id":6089,"klass":"Station","name":"Taura","opening":1904,"buildstart":1904,"closure":999999,"lines":[{"line":"Yokosuka Line","line_url_name":"537-yokosuka-line","system":"JR East  東日本旅客鉄道"}]}}, {"type":"Feature","geometry":{"type":"Point","coordinates":[139.87838,35.82452]},"properties":{"id":6108,"klass":"Station","name":"Misato-chuo","opening":2005,"buildstart":1997,"closure":999999,"lines":[{"line":"Tsukuba Express","line_url_name":"495-tsukuba-express","system":"Metropolitan Intercity Railway Company"}]}}, {"type":"Feature","geometry":{"type":"Point","coordinates":[139.84491,35.8078]},"properties":{"id":6107,"klass":"Station","name":"Yashio","opening":2005,"buildstart":1997,"closure":999999,"lines":[{"line":"Tsukuba Express","line_url_name":"495-tsukuba-express","system":"Metropolitan Intercity Railway Company"}]}}, {"type":"Feature","geometry":{"type":"Point","coordinates":[139.91525,35.85453]},"properties":{"id":6110,"klass":"Station","name":"Nagareyama-centralpark","opening":2005,"buildstart":1997,"closure":999999,"lines":[{"line":"Tsukuba Express","line_url_name":"495-tsukuba-express","system":"Metropolitan Intercity Railway Company"}]}}, {"type":"Feature","geometry":{"type":"Point","coordinates":[139.9034,35.83874]},"properties":{"id":6109,"klass":"Station","name":"Minami-Nagareyama","opening":2005,"buildstart":1997,"closure":999999,"lines":[{"line":"Tsukuba Express","line_url_name":"495-tsukuba-express","system":"Metropolitan Intercity Railway Company"}]}}, {"type":"Feature","geometry":{"type":"Point","coordinates":[139.92535,35.8721]},"properties":{"id":6111,"klass":"Station","name":"Nagareyama-Otakanomori","opening":2005,"buildstart":1997,"closure":999999,"lines":[{"line":"Tsukuba Express","line_url_name":"495-tsukuba-express","system":"Metropolitan Intercity Railway Company"}]}}, {"type":"Feature","geometry":{"type":"Point","coordinates":[139.95252,35.89337]},"properties":{"id":6112,"klass":"Station","name":"Kashiwanoha-campus","opening":2005,"buildstart":1997,"closure":999999,"lines":[{"line":"Tsukuba Express","line_url_name":"495-tsukuba-express","system":"Metropolitan Intercity Railway Company"}]}}, {"type":"Feature","geometry":{"type":"Point","coordinates":[139.95761,35.91094]},"properties":{"id":6113,"klass":"Station","name":"Kashiwa-Tanaka","opening":2005,"buildstart":1997,"closure":999999,"lines":[{"line":"Tsukuba Express","line_url_name":"495-tsukuba-express","system":"Metropolitan Intercity Railway Company"}]}}, {"type":"Feature","geometry":{"type":"Point","coordinates":[139.99238,35.95026]},"properties":{"id":6114,"klass":"Station","name":"Moriya","opening":2005,"buildstart":1997,"closure":999999,"lines":[{"line":"Tsukuba Express","line_url_name":"495-tsukuba-express","system":"Metropolitan Intercity Railway Company"}]}}, {"type":"Feature","geometry":{"type":"Point","coordinates":[139.50972,35.66648]},"properties":{"id":6115,"klass":"Station","name":"Shiraitodai","opening":1917,"buildstart":1917,"closure":999999,"lines":[{"line":"Tamagawa Line","line_url_name":"433-tamagawa-line","system":"Seibu Railway"}]}}, {"type":"Feature","geometry":{"type":"Point","coordinates":[139.48905,35.65629]},"properties":{"id":6116,"klass":"Station","name":"Koremasa","opening":1922,"buildstart":1922,"closure":999999,"lines":[{"line":"Tamagawa Line","line_url_name":"433-tamagawa-line","system":"Seibu Railway"}]}}, {"type":"Feature","geometry":{"type":"Point","coordinates":[139.51718,35.67703]},"properties":{"id":6117,"klass":"Station","name":"Tama","opening":1917,"buildstart":1917,"closure":999999,"lines":[{"line":"Tamagawa Line","line_url_name":"433-tamagawa-line","system":"Seibu Railway"}]}}, {"type":"Feature","geometry":{"type":"Point","coordinates":[139.4996,35.65616]},"properties":{"id":6118,"klass":"Station","name":"Kyoteijo-mae","opening":1922,"buildstart":1922,"closure":999999,"lines":[{"line":"Tamagawa Line","line_url_name":"433-tamagawa-line","system":"Seibu Railway"}]}}, {"type":"Feature","geometry":{"type":"Point","coordinates":[139.52672,35.69596]},"properties":{"id":6119,"klass":"Station","name":"Shin-Koganei","opening":1917,"buildstart":1917,"closure":999999,"lines":[{"line":"Tamagawa Line","line_url_name":"433-tamagawa-line","system":"Seibu Railway"}]}}, {"type":"Feature","geometry":{"type":"Point","coordinates":[139.54421,35.70189]},"properties":{"id":6120,"klass":"Station","name":"Musashi-Sakai","opening":1917,"buildstart":1917,"closure":999999,"lines":[{"line":"Tamagawa Line","line_url_name":"433-tamagawa-line","system":"Seibu Railway"}]}}, {"type":"Feature","geometry":{"type":"Point","coordinates":[139.48024,35.70027]},"properties":{"id":6122,"klass":"Station","name":"Kokubunji","opening":1894,"buildstart":1894,"closure":999999,"lines":[{"line":"Kokubunji Line","line_url_name":"432-kokubunji-line","system":"Seibu Railway"},{"line":"Tamako Line","line_url_name":"434-tamako-line","system":"Seibu Railway"}]}}, {"type":"Feature","geometry":{"type":"Point","coordinates":[139.46405,35.7113]},"properties":{"id":6123,"klass":"Station","name":"Koigakubo","opening":1955,"buildstart":1955,"closure":999999,"lines":[{"line":"Kokubunji Line","line_url_name":"432-kokubunji-line","system":"Seibu Railway"}]}}, {"type":"Feature","geometry":{"type":"Point","coordinates":[139.46116,35.72336]},"properties":{"id":6124,"klass":"Station","name":"Takanodai","opening":1948,"buildstart":1948,"closure":999999,"lines":[{"line":"Kokubunji Line","line_url_name":"432-kokubunji-line","system":"Seibu Railway"}]}}, {"type":"Feature","geometry":{"type":"Point","coordinates":[139.46353,35.73751]},"properties":{"id":6125,"klass":"Station","name":"Ogawa","opening":1894,"buildstart":1894,"closure":999999,"lines":[{"line":"Kokubunji Line","line_url_name":"432-kokubunji-line","system":"Seibu Railway"}]}}, {"type":"Feature","geometry":{"type":"Point","coordinates":[139.44423,35.75606]},"properties":{"id":6127,"klass":"Station","name":"Musashi-Yamato","opening":1930,"buildstart":1930,"closure":999999,"lines":[{"line":"Tamako Line","line_url_name":"434-tamako-line","system":"Seibu Railway"}]}}, {"type":"Feature","geometry":{"type":"Point","coordinates":[139.6685,35.74092]},"properties":{"id":6132,"klass":"Station","name":"Shin-Sakuradai","opening":1983,"buildstart":1983,"closure":999999,"lines":[{"line":"Yurakucho Line","line_url_name":"539-yurakucho-line","system":"Seibu Railway"}]}}, {"type":"Feature","geometry":{"type":"Point","coordinates":[139.46339,35.7375]},"properties":{"id":6139,"klass":"Station","name":"Ogawa","opening":1950,"buildstart":1950,"closure":999999,"lines":[{"line":"Haijima Line","line_url_name":"541-hajima-line","system":"Seibu Railway"}]}}, {"type":"Feature","geometry":{"type":"Point","coordinates":[139.34394,35.72156]},"properties":{"id":6141,"klass":"Station","name":"Haijima","opening":1968,"buildstart":1968,"closure":999999,"lines":[{"line":"Haijima Line","line_url_name":"541-hajima-line","system":"Seibu Railway"}]}}, {"type":"Feature","geometry":{"type":"Point","coordinates":[139.37,35.72625]},"properties":{"id":6142,"klass":"Station","name":"Seibu-Tachikawa","opening":1968,"buildstart":1968,"closure":999999,"lines":[{"line":"Haijima Line","line_url_name":"541-hajima-line","system":"Seibu Railway"}]}}, {"type":"Feature","geometry":{"type":"Point","coordinates":[139.39252,35.72896]},"properties":{"id":6143,"klass":"Station","name":"Musashi-Sunagawa","opening":1983,"buildstart":1983,"closure":999999,"lines":[{"line":"Haijima Line","line_url_name":"541-hajima-line","system":"Seibu Railway"}]}}, {"type":"Feature","geometry":{"type":"Point","coordinates":[139.43508,35.73319]},"properties":{"id":6144,"klass":"Station","name":"Higashi-Yamatoshi","opening":1950,"buildstart":1950,"closure":999999,"lines":[{"line":"Haijima Line","line_url_name":"541-hajima-line","system":"Seibu Railway"}]}}, {"type":"Feature","geometry":{"type":"Point","coordinates":[139.4883,35.73698]},"properties":{"id":6137,"klass":"Station","name":"Kodaira","opening":1928,"buildstart":1928,"closure":999999,"lines":[{"line":"Haijima Line","line_url_name":"541-hajima-line","system":"Seibu Railway"}]}}, {"type":"Feature","geometry":{"type":"Point","coordinates":[139.47712,35.74074]},"properties":{"id":6138,"klass":"Station","name":"Hagiyama","opening":1928,"buildstart":1928,"closure":999999,"lines":[{"line":"Haijima Line","line_url_name":"541-hajima-line","system":"Seibu Railway"}]}}, {"type":"Feature","geometry":{"type":"Point","coordinates":[139.41836,35.73173]},"properties":{"id":6140,"klass":"Station","name":"Tamagawa-Josui","opening":1950,"buildstart":1950,"closure":999999,"lines":[{"line":"Haijima Line","line_url_name":"541-hajima-line","system":"Seibu Railway"}]}}, {"type":"Feature","geometry":{"type":"Point","coordinates":[139.68687,35.26323]},"properties":{"id":6191,"klass":"Station","name":"Horinouchi","opening":1930,"buildstart":1930,"closure":999999,"lines":[{"line":"Keikyu Main Line","line_url_name":"423-keikyu-main-line","system":"Keikyu"}]}}, {"type":"Feature","geometry":{"type":"Point","coordinates":[139.64626,35.49244]},"properties":{"id":6195,"klass":"Station","name":"Oguchi","opening":1947,"buildstart":1947,"closure":999999,"lines":[{"line":"Yokohama Line","line_url_name":"500-yokohama-line","system":"JR East  東日本旅客鉄道"}]}}, {"type":"Feature","geometry":{"type":"Point","coordinates":[139.60003,35.50854]},"properties":{"id":6198,"klass":"Station","name":"Kozukue","opening":1908,"buildstart":1908,"closure":999999,"lines":[{"line":"Yokohama Line","line_url_name":"500-yokohama-line","system":"JR East  東日本旅客鉄道"}]}}, {"type":"Feature","geometry":{"type":"Point","coordinates":[139.79744,35.67135]},"properties":{"id":8973,"klass":"Station","name":"Fudosonmae","opening":1914,"buildstart":1914,"closure":1972,"lines":[{"line":"Susaki Line","line_url_name":"798-susaki-line","system":"Tokyo Toden"}]}}, {"type":"Feature","geometry":{"type":"Point","coordinates":[139.73541,35.58776]},"properties":{"id":6145,"klass":"Station","name":"Omorikaigan","opening":1901,"buildstart":1901,"closure":999999,"lines":[{"line":"Keikyu Main Line","line_url_name":"423-keikyu-main-line","system":"Keikyu"}]}}, {"type":"Feature","geometry":{"type":"Point","coordinates":[139.44501,35.5423]},"properties":{"id":6204,"klass":"Station","name":"Machida","opening":1908,"buildstart":1908,"closure":999999,"lines":[{"line":"Yokohama Line","line_url_name":"500-yokohama-line","system":"JR East  東日本旅客鉄道"}]}}, {"type":"Feature","geometry":{"type":"Point","coordinates":[139.7008,35.53287]},"properties":{"id":6147,"klass":"Station","name":"Keikyu-Kawasaki","opening":1901,"buildstart":1901,"closure":999999,"lines":[{"line":"Keikyu Main Line","line_url_name":"423-keikyu-main-line","system":"Keikyu"}]}}, {"type":"Feature","geometry":{"type":"Point","coordinates":[139.71511,35.25133]},"properties":{"id":6150,"klass":"Station","name":"Uraga","opening":1930,"buildstart":1930,"closure":999999,"lines":[{"line":"Keikyu Main Line","line_url_name":"423-keikyu-main-line","system":"Keikyu"}]}}, {"type":"Feature","geometry":{"type":"Point","coordinates":[139.38619,35.57332]},"properties":{"id":6207,"klass":"Station","name":"Yabe","opening":1957,"buildstart":1957,"closure":999999,"lines":[{"line":"Yokohama Line","line_url_name":"500-yokohama-line","system":"JR East  東日本旅客鉄道"}]}}, {"type":"Feature","geometry":{"type":"Point","coordinates":[139.7423,35.60501]},"properties":{"id":6155,"klass":"Station","name":"Samezu","opening":1904,"buildstart":1904,"closure":999999,"lines":[{"line":"Keikyu Main Line","line_url_name":"423-keikyu-main-line","system":"Keikyu"}]}}, {"type":"Feature","geometry":{"type":"Point","coordinates":[139.73203,35.5725]},"properties":{"id":6158,"klass":"Station","name":"Omorimachi","opening":1952,"buildstart":1952,"closure":999999,"lines":[{"line":"Keikyu Main Line","line_url_name":"423-keikyu-main-line","system":"Keikyu"}]}}, {"type":"Feature","geometry":{"type":"Point","coordinates":[139.98064,35.70593]},"properties":{"id":6575,"klass":"Station","name":"Higashi-Kaijin","opening":1996,"buildstart":1984,"closure":999999,"lines":[{"line":"Toyo Rapid Railway Line","line_url_name":"563-toyo-rapid-railway-line","system":"Toyo Rapid Railway"}]}}, {"type":"Feature","geometry":{"type":"Point","coordinates":[139.71515,35.55005]},"properties":{"id":6161,"klass":"Station","name":"Zoshiki","opening":1901,"buildstart":1901,"closure":999999,"lines":[{"line":"Keikyu Main Line","line_url_name":"423-keikyu-main-line","system":"Keikyu"}]}}, {"type":"Feature","geometry":{"type":"Point","coordinates":[139.33169,35.60691]},"properties":{"id":6210,"klass":"Station","name":"Aihara","opening":1908,"buildstart":1908,"closure":999999,"lines":[{"line":"Yokohama Line","line_url_name":"500-yokohama-line","system":"JR East  東日本旅客鉄道"}]}}, {"type":"Feature","geometry":{"type":"Point","coordinates":[139.68667,35.51785]},"properties":{"id":6164,"klass":"Station","name":"Tsurumi-ichiba","opening":1905,"buildstart":1905,"closure":999999,"lines":[{"line":"Keikyu Main Line","line_url_name":"423-keikyu-main-line","system":"Keikyu"}]}}, {"type":"Feature","geometry":{"type":"Point","coordinates":[139.66778,35.49601]},"properties":{"id":6167,"klass":"Station","name":"Namamugi","opening":1905,"buildstart":1905,"closure":999999,"lines":[{"line":"Keikyu Main Line","line_url_name":"423-keikyu-main-line","system":"Keikyu"}]}}, {"type":"Feature","geometry":{"type":"Point","coordinates":[139.63999,35.48141]},"properties":{"id":6170,"klass":"Station","name":"Kanagawa-shimmachi","opening":1915,"buildstart":1915,"closure":999999,"lines":[{"line":"Keikyu Main Line","line_url_name":"423-keikyu-main-line","system":"Keikyu"}]}}, {"type":"Feature","geometry":{"type":"Point","coordinates":[139.33879,35.65531]},"properties":{"id":6213,"klass":"Station","name":"Hachioji","opening":1908,"buildstart":1908,"closure":999999,"lines":[{"line":"Yokohama Line","line_url_name":"500-yokohama-line","system":"JR East  東日本旅客鉄道"}]}}, {"type":"Feature","geometry":{"type":"Point","coordinates":[139.62667,35.44561]},"properties":{"id":6173,"klass":"Station","name":"Hinodecho","opening":1931,"buildstart":1931,"closure":999999,"lines":[{"line":"Keikyu Main Line","line_url_name":"423-keikyu-main-line","system":"Keikyu"}]}}, {"type":"Feature","geometry":{"type":"Point","coordinates":[139.59684,35.42434]},"properties":{"id":6176,"klass":"Station","name":"Gumyoji","opening":1930,"buildstart":1930,"closure":999999,"lines":[{"line":"Keikyu Main Line","line_url_name":"423-keikyu-main-line","system":"Keikyu"}]}}, {"type":"Feature","geometry":{"type":"Point","coordinates":[139.57438,35.54574]},"properties":{"id":6606,"klass":"Station","name":"Center-Minami","opening":1993,"buildstart":1993,"closure":999999,"lines":[{"line":"Blue Line","line_url_name":"564-blue-line","system":"Yokohama Municipal Subway"}]}}, {"type":"Feature","geometry":{"type":"Point","coordinates":[139.61562,35.38401]},"properties":{"id":6179,"klass":"Station","name":"Sugita","opening":1930,"buildstart":1930,"closure":999999,"lines":[{"line":"Keikyu Main Line","line_url_name":"423-keikyu-main-line","system":"Keikyu"}]}}, {"type":"Feature","geometry":{"type":"Point","coordinates":[139.34335,35.72121]},"properties":{"id":6566,"klass":"Station","name":"Haijima","opening":1925,"buildstart":1925,"closure":999999,"lines":[{"line":"Itsukaichi Line  五日市線","line_url_name":"562-itsukaichi-line","system":"JR East  東日本旅客鉄道"}]}}, {"type":"Feature","geometry":{"type":"Point","coordinates":[139.62159,35.34285]},"properties":{"id":6182,"klass":"Station","name":"Kanazawa-bunko","opening":1930,"buildstart":1930,"closure":999999,"lines":[{"line":"Keikyu Main Line","line_url_name":"423-keikyu-main-line","system":"Keikyu"}]}}, {"type":"Feature","geometry":{"type":"Point","coordinates":[139.62516,35.30082]},"properties":{"id":6185,"klass":"Station","name":"Keikyu-Taura","opening":1930,"buildstart":1930,"closure":999999,"lines":[{"line":"Keikyu Main Line","line_url_name":"423-keikyu-main-line","system":"Keikyu"}]}}, {"type":"Feature","geometry":{"type":"Point","coordinates":[140.02216,35.71399]},"properties":{"id":6576,"klass":"Station","name":"Hasama","opening":1996,"buildstart":1984,"closure":999999,"lines":[{"line":"Toyo Rapid Railway Line","line_url_name":"563-toyo-rapid-railway-line","system":"Toyo Rapid Railway"}]}}, {"type":"Feature","geometry":{"type":"Point","coordinates":[139.66221,35.28028]},"properties":{"id":6188,"klass":"Station","name":"Shioiri","opening":1930,"buildstart":1930,"closure":999999,"lines":[{"line":"Keikyu Main Line","line_url_name":"423-keikyu-main-line","system":"Keikyu"}]}}, {"type":"Feature","geometry":{"type":"Point","coordinates":[139.228,35.73225]},"properties":{"id":6567,"klass":"Station","name":"Musashi-Itsukaichi","opening":1925,"buildstart":1925,"closure":999999,"lines":[{"line":"Itsukaichi Line  五日市線","line_url_name":"562-itsukaichi-line","system":"JR East  東日本旅客鉄道"}]}}, {"type":"Feature","geometry":{"type":"Point","coordinates":[139.33536,35.72847]},"properties":{"id":6568,"klass":"Station","name":"Kumagawa","opening":1931,"buildstart":1931,"closure":999999,"lines":[{"line":"Itsukaichi Line  五日市線","line_url_name":"562-itsukaichi-line","system":"JR East  東日本旅客鉄道"}]}}, {"type":"Feature","geometry":{"type":"Point","coordinates":[139.51663,35.52629]},"properties":{"id":6201,"klass":"Station","name":"Tokaichiba","opening":1979,"buildstart":1979,"closure":999999,"lines":[{"line":"Yokohama Line","line_url_name":"500-yokohama-line","system":"JR East  東日本旅客鉄道"}]}}, {"type":"Feature","geometry":{"type":"Point","coordinates":[139.3111,35.72599]},"properties":{"id":6569,"klass":"Station","name":"Higashi-Akiru","opening":1925,"buildstart":1925,"closure":999999,"lines":[{"line":"Itsukaichi Line  五日市線","line_url_name":"562-itsukaichi-line","system":"JR East  東日本旅客鉄道"}]}}, {"type":"Feature","geometry":{"type":"Point","coordinates":[140.04211,35.72156]},"properties":{"id":6577,"klass":"Station","name":"Kita-Narashino","opening":1996,"buildstart":1984,"closure":999999,"lines":[{"line":"Toyo Rapid Railway Line","line_url_name":"563-toyo-rapid-railway-line","system":"Toyo Rapid Railway"}]}}, {"type":"Feature","geometry":{"type":"Point","coordinates":[139.28668,35.72808]},"properties":{"id":6570,"klass":"Station","name":"Akigawa","opening":1925,"buildstart":1925,"closure":999999,"lines":[{"line":"Itsukaichi Line  五日市線","line_url_name":"562-itsukaichi-line","system":"JR East  東日本旅客鉄道"}]}}, {"type":"Feature","geometry":{"type":"Point","coordinates":[139.2701,35.72971]},"properties":{"id":6571,"klass":"Station","name":"Musashi-Hikida","opening":1930,"buildstart":1930,"closure":999999,"lines":[{"line":"Itsukaichi Line  五日市線","line_url_name":"562-itsukaichi-line","system":"JR East  東日本旅客鉄道"}]}}, {"type":"Feature","geometry":{"type":"Point","coordinates":[139.25631,35.73094]},"properties":{"id":6572,"klass":"Station","name":"Musashi-Masuko","opening":1925,"buildstart":1925,"closure":999999,"lines":[{"line":"Itsukaichi Line  五日市線","line_url_name":"562-itsukaichi-line","system":"JR East  東日本旅客鉄道"}]}}, {"type":"Feature","geometry":{"type":"Point","coordinates":[140.05902,35.72694]},"properties":{"id":6578,"klass":"Station","name":"Funabashi-Nichidaimae","opening":1996,"buildstart":1984,"closure":999999,"lines":[{"line":"Toyo Rapid Railway Line","line_url_name":"563-toyo-rapid-railway-line","system":"Toyo Rapid Railway"}]}}, {"type":"Feature","geometry":{"type":"Point","coordinates":[140.12622,35.71581]},"properties":{"id":6574,"klass":"Station","name":"Toyo-Katsutadai","opening":1996,"buildstart":1984,"closure":999999,"lines":[{"line":"Toyo Rapid Railway Line","line_url_name":"563-toyo-rapid-railway-line","system":"Toyo Rapid Railway"}]}}, {"type":"Feature","geometry":{"type":"Point","coordinates":[139.55082,35.40254]},"properties":{"id":6599,"klass":"Station","name":"Maioka","opening":1985,"buildstart":1985,"closure":999999,"lines":[{"line":"Blue Line","line_url_name":"564-blue-line","system":"Yokohama Municipal Subway"}]}}, {"type":"Feature","geometry":{"type":"Point","coordinates":[140.07309,35.72886]},"properties":{"id":6579,"klass":"Station","name":"Yachiyo-Midorigaoka","opening":1996,"buildstart":1984,"closure":999999,"lines":[{"line":"Toyo Rapid Railway Line","line_url_name":"563-toyo-rapid-railway-line","system":"Toyo Rapid Railway"}]}}, {"type":"Feature","geometry":{"type":"Point","coordinates":[140.10338,35.72786]},"properties":{"id":6580,"klass":"Station","name":"Yachiyo-chuo","opening":1996,"buildstart":1984,"closure":999999,"lines":[{"line":"Toyo Rapid Railway Line","line_url_name":"563-toyo-rapid-railway-line","system":"Toyo Rapid Railway"}]}}, {"type":"Feature","geometry":{"type":"Point","coordinates":[140.11845,35.72372]},"properties":{"id":6581,"klass":"Station","name":"Murakami","opening":1996,"buildstart":1984,"closure":999999,"lines":[{"line":"Toyo Rapid Railway Line","line_url_name":"563-toyo-rapid-railway-line","system":"Toyo Rapid Railway"}]}}, {"type":"Feature","geometry":{"type":"Point","coordinates":[139.63306,35.44096]},"properties":{"id":6594,"klass":"Station","name":"Isezakichojamachi","opening":1972,"buildstart":1972,"closure":999999,"lines":[{"line":"Blue Line","line_url_name":"564-blue-line","system":"Yokohama Municipal Subway"}]}}, {"type":"Feature","geometry":{"type":"Point","coordinates":[139.59598,35.40905]},"properties":{"id":6595,"klass":"Station","name":"Kami-Ooka","opening":1972,"buildstart":1972,"closure":999999,"lines":[{"line":"Blue Line","line_url_name":"564-blue-line","system":"Yokohama Municipal Subway"}]}}, {"type":"Feature","geometry":{"type":"Point","coordinates":[139.55349,35.56827]},"properties":{"id":6601,"klass":"Station","name":"Azamino","opening":1993,"buildstart":1993,"closure":999999,"lines":[{"line":"Blue Line","line_url_name":"564-blue-line","system":"Yokohama Municipal Subway"}]}}, {"type":"Feature","geometry":{"type":"Point","coordinates":[139.57258,35.40145]},"properties":{"id":6597,"klass":"Station","name":"Kami-Nagaya","opening":1976,"buildstart":1976,"closure":999999,"lines":[{"line":"Blue Line","line_url_name":"564-blue-line","system":"Yokohama Municipal Subway"}]}}, {"type":"Feature","geometry":{"type":"Point","coordinates":[139.61193,35.52759]},"properties":{"id":6608,"klass":"Station","name":"Nippa","opening":1993,"buildstart":1993,"closure":999999,"lines":[{"line":"Blue Line","line_url_name":"564-blue-line","system":"Yokohama Municipal Subway"}]}}, {"type":"Feature","geometry":{"type":"Point","coordinates":[139.57827,35.55349]},"properties":{"id":6605,"klass":"Station","name":"Center-Kita","opening":1993,"buildstart":1993,"closure":999999,"lines":[{"line":"Blue Line","line_url_name":"564-blue-line","system":"Yokohama Municipal Subway"}]}}, {"type":"Feature","geometry":{"type":"Point","coordinates":[139.58961,35.5353]},"properties":{"id":6607,"klass":"Station","name":"Nakamachidai","opening":1993,"buildstart":1993,"closure":999999,"lines":[{"line":"Blue Line","line_url_name":"564-blue-line","system":"Yokohama Municipal Subway"}]}}, {"type":"Feature","geometry":{"type":"Point","coordinates":[139.61275,35.51927]},"properties":{"id":6609,"klass":"Station","name":"Kita Shin-Yokohama","opening":1993,"buildstart":1993,"closure":999999,"lines":[{"line":"Blue Line","line_url_name":"564-blue-line","system":"Yokohama Municipal Subway"}]}}, {"type":"Feature","geometry":{"type":"Point","coordinates":[139.6171,35.49612]},"properties":{"id":6610,"klass":"Station","name":"Kishine-koen","opening":1985,"buildstart":1985,"closure":999999,"lines":[{"line":"Blue Line","line_url_name":"564-blue-line","system":"Yokohama Municipal Subway"}]}}, {"type":"Feature","geometry":{"type":"Point","coordinates":[139.63073,35.44976]},"properties":{"id":6615,"klass":"Station","name":"Sakuragicho","opening":1976,"buildstart":1976,"closure":999999,"lines":[{"line":"Blue Line","line_url_name":"564-blue-line","system":"Yokohama Municipal Subway"}]}}, {"type":"Feature","geometry":{"type":"Point","coordinates":[139.63675,35.44531]},"properties":{"id":6616,"klass":"Station","name":"Kannai","opening":1976,"buildstart":1976,"closure":999999,"lines":[{"line":"Blue Line","line_url_name":"564-blue-line","system":"Yokohama Municipal Subway"}]}}, {"type":"Feature","geometry":{"type":"Point","coordinates":[139.62515,35.43747]},"properties":{"id":6617,"klass":"Station","name":"Bandobashi","opening":1972,"buildstart":1972,"closure":999999,"lines":[{"line":"Blue Line","line_url_name":"564-blue-line","system":"Yokohama Municipal Subway"}]}}, {"type":"Feature","geometry":{"type":"Point","coordinates":[139.73805,35.62832]},"properties":{"id":6152,"klass":"Station","name":"Shinagawa","opening":1925,"buildstart":1925,"closure":999999,"lines":[{"line":"Keikyu Main Line","line_url_name":"423-keikyu-main-line","system":"Keikyu"},{"line":"Narita Airport Line (Narita Sky Access)","line_url_name":"427-narita-sky-access","system":"Keisei"}]}}, {"type":"Feature","geometry":{"type":"Point","coordinates":[139.49515,35.5317]},"properties":{"id":6202,"klass":"Station","name":"Nagatsuta","opening":1908,"buildstart":1908,"closure":999999,"lines":[{"line":"Yokohama Line","line_url_name":"500-yokohama-line","system":"JR East  東日本旅客鉄道"}]}}, {"type":"Feature","geometry":{"type":"Point","coordinates":[139.73928,35.62232]},"properties":{"id":6146,"klass":"Station","name":"Kita-Shinagawa","opening":1904,"buildstart":1904,"closure":999999,"lines":[{"line":"Keikyu Main Line","line_url_name":"423-keikyu-main-line","system":"Keikyu"}]}}, {"type":"Feature","geometry":{"type":"Point","coordinates":[139.62294,35.43988]},"properties":{"id":6149,"klass":"Station","name":"Koganecho","opening":1930,"buildstart":1930,"closure":999999,"lines":[{"line":"Keikyu Main Line","line_url_name":"423-keikyu-main-line","system":"Keikyu"}]}}, {"type":"Feature","geometry":{"type":"Point","coordinates":[139.63603,35.44407]},"properties":{"id":6631,"klass":"Station","name":"Kannai","opening":1964,"buildstart":1964,"closure":999999,"lines":[{"line":"Negishi Line","line_url_name":"566-negishi-line","system":"JR East  東日本旅客鉄道"}]}}, {"type":"Feature","geometry":{"type":"Point","coordinates":[139.62321,35.46612]},"properties":{"id":6151,"klass":"Station","name":"Yokohama","opening":1929,"buildstart":1929,"closure":999999,"lines":[{"line":"Keikyu Main Line","line_url_name":"423-keikyu-main-line","system":"Keikyu"}]}}, {"type":"Feature","geometry":{"type":"Point","coordinates":[139.41933,35.55596]},"properties":{"id":6205,"klass":"Station","name":"Kobuchi","opening":1988,"buildstart":1988,"closure":999999,"lines":[{"line":"Yokohama Line","line_url_name":"500-yokohama-line","system":"JR East  東日本旅客鉄道"}]}}, {"type":"Feature","geometry":{"type":"Point","coordinates":[139.74308,35.60885]},"properties":{"id":6154,"klass":"Station","name":"Aomono-yokocho","opening":1904,"buildstart":1904,"closure":999999,"lines":[{"line":"Keikyu Main Line","line_url_name":"423-keikyu-main-line","system":"Keikyu"}]}}, {"type":"Feature","geometry":{"type":"Point","coordinates":[139.73497,35.57872]},"properties":{"id":6157,"klass":"Station","name":"Heiwajima","opening":1901,"buildstart":1901,"closure":999999,"lines":[{"line":"Keikyu Main Line","line_url_name":"423-keikyu-main-line","system":"Keikyu"}]}}, {"type":"Feature","geometry":{"type":"Point","coordinates":[139.7238,35.56103]},"properties":{"id":6160,"klass":"Station","name":"Keikyu-Kamata","opening":1901,"buildstart":1901,"closure":999999,"lines":[{"line":"Keikyu Main Line","line_url_name":"423-keikyu-main-line","system":"Keikyu"}]}}, {"type":"Feature","geometry":{"type":"Point","coordinates":[139.37074,35.58143]},"properties":{"id":6208,"klass":"Station","name":"Sagamihara","opening":1941,"buildstart":1941,"closure":999999,"lines":[{"line":"Yokohama Line","line_url_name":"500-yokohama-line","system":"JR East  東日本旅客鉄道"}]}}, {"type":"Feature","geometry":{"type":"Point","coordinates":[139.6914,35.52301]},"properties":{"id":6163,"klass":"Station","name":"Hatchonawate","opening":1916,"buildstart":1916,"closure":999999,"lines":[{"line":"Keikyu Main Line","line_url_name":"423-keikyu-main-line","system":"Keikyu"}]}}, {"type":"Feature","geometry":{"type":"Point","coordinates":[139.67298,35.50039]},"properties":{"id":6166,"klass":"Station","name":"Kagetsuen-mae","opening":1914,"buildstart":1914,"closure":999999,"lines":[{"line":"Keikyu Main Line","line_url_name":"423-keikyu-main-line","system":"Keikyu"}]}}, {"type":"Feature","geometry":{"type":"Point","coordinates":[139.64515,35.48465]},"properties":{"id":6169,"klass":"Station","name":"Koyasu","opening":1905,"buildstart":1905,"closure":999999,"lines":[{"line":"Keikyu Main Line","line_url_name":"423-keikyu-main-line","system":"Keikyu"}]}}, {"type":"Feature","geometry":{"type":"Point","coordinates":[139.33089,35.63124]},"properties":{"id":6211,"klass":"Station","name":"Hachioji-Minamino","opening":1997,"buildstart":1997,"closure":999999,"lines":[{"line":"Yokohama Line","line_url_name":"500-yokohama-line","system":"JR East  東日本旅客鉄道"}]}}, {"type":"Feature","geometry":{"type":"Point","coordinates":[139.61955,35.45674]},"properties":{"id":6172,"klass":"Station","name":"Tobe","opening":1931,"buildstart":1931,"closure":999999,"lines":[{"line":"Keikyu Main Line","line_url_name":"423-keikyu-main-line","system":"Keikyu"}]}}, {"type":"Feature","geometry":{"type":"Point","coordinates":[139.60079,35.43399]},"properties":{"id":6175,"klass":"Station","name":"Idogaya","opening":1930,"buildstart":1930,"closure":999999,"lines":[{"line":"Keikyu Main Line","line_url_name":"423-keikyu-main-line","system":"Keikyu"}]}}, {"type":"Feature","geometry":{"type":"Point","coordinates":[139.61027,35.39426]},"properties":{"id":6178,"klass":"Station","name":"Byobugaura","opening":1930,"buildstart":1930,"closure":999999,"lines":[{"line":"Keikyu Main Line","line_url_name":"423-keikyu-main-line","system":"Keikyu"}]}}, {"type":"Feature","geometry":{"type":"Point","coordinates":[139.647,35.55335]},"properties":{"id":6585,"klass":"Station","name":"Hiyoshi","opening":2008,"buildstart":2001,"closure":999999,"lines":[{"line":"Green Line","line_url_name":"565-green-line","system":"Yokohama Municipal Subway"}]}}, {"type":"Feature","geometry":{"type":"Point","coordinates":[139.62942,35.36086]},"properties":{"id":6181,"klass":"Station","name":"Nokendai","opening":1944,"buildstart":1944,"closure":999999,"lines":[{"line":"Keikyu Main Line","line_url_name":"423-keikyu-main-line","system":"Keikyu"}]}}, {"type":"Feature","geometry":{"type":"Point","coordinates":[139.62486,35.31578]},"properties":{"id":6184,"klass":"Station","name":"Oppama","opening":1930,"buildstart":1930,"closure":999999,"lines":[{"line":"Keikyu Main Line","line_url_name":"423-keikyu-main-line","system":"Keikyu"}]}}, {"type":"Feature","geometry":{"type":"Point","coordinates":[139.61734,35.50901]},"properties":{"id":6598,"klass":"Station","name":"Shin-Yokohama","opening":1985,"buildstart":1985,"closure":999999,"lines":[{"line":"Blue Line","line_url_name":"564-blue-line","system":"Yokohama Municipal Subway"}]}}, {"type":"Feature","geometry":{"type":"Point","coordinates":[139.65285,35.28049]},"properties":{"id":6187,"klass":"Station","name":"Hemi","opening":1930,"buildstart":1930,"closure":999999,"lines":[{"line":"Keikyu Main Line","line_url_name":"423-keikyu-main-line","system":"Keikyu"}]}}, {"type":"Feature","geometry":{"type":"Point","coordinates":[139.63366,35.55006]},"properties":{"id":6586,"klass":"Station","name":"Hiyoshi-Honcho","opening":2008,"buildstart":2001,"closure":999999,"lines":[{"line":"Green Line","line_url_name":"565-green-line","system":"Yokohama Municipal Subway"}]}}, {"type":"Feature","geometry":{"type":"Point","coordinates":[139.67663,35.27018]},"properties":{"id":6190,"klass":"Station","name":"Kenritsudaigaku","opening":1930,"buildstart":1930,"closure":999999,"lines":[{"line":"Keikyu Main Line","line_url_name":"423-keikyu-main-line","system":"Keikyu"}]}}, {"type":"Feature","geometry":{"type":"Point","coordinates":[139.70762,35.25962]},"properties":{"id":6193,"klass":"Station","name":"Maborikaigan","opening":1930,"buildstart":1930,"closure":999999,"lines":[{"line":"Keikyu Main Line","line_url_name":"423-keikyu-main-line","system":"Keikyu"}]}}, {"type":"Feature","geometry":{"type":"Point","coordinates":[139.63018,35.50969]},"properties":{"id":6196,"klass":"Station","name":"Kikuna","opening":1926,"buildstart":1926,"closure":999999,"lines":[{"line":"Yokohama Line","line_url_name":"500-yokohama-line","system":"JR East  東日本旅客鉄道"}]}}, {"type":"Feature","geometry":{"type":"Point","coordinates":[139.61997,35.54961]},"properties":{"id":6587,"klass":"Station","name":"Takata","opening":2008,"buildstart":2001,"closure":999999,"lines":[{"line":"Green Line","line_url_name":"565-green-line","system":"Yokohama Municipal Subway"}]}}, {"type":"Feature","geometry":{"type":"Point","coordinates":[139.56723,35.51097]},"properties":{"id":6199,"klass":"Station","name":"Kamoi","opening":1962,"buildstart":1962,"closure":999999,"lines":[{"line":"Yokohama Line","line_url_name":"500-yokohama-line","system":"JR East  東日本旅客鉄道"}]}}, {"type":"Feature","geometry":{"type":"Point","coordinates":[139.53424,35.4008]},"properties":{"id":6600,"klass":"Station","name":"Totsuka","opening":1987,"buildstart":1987,"closure":999999,"lines":[{"line":"Blue Line","line_url_name":"564-blue-line","system":"Yokohama Municipal Subway"}]}}, {"type":"Feature","geometry":{"type":"Point","coordinates":[139.60449,35.55415]},"properties":{"id":6588,"klass":"Station","name":"Higashi-Yamata","opening":2008,"buildstart":2001,"closure":999999,"lines":[{"line":"Green Line","line_url_name":"565-green-line","system":"Yokohama Municipal Subway"}]}}, {"type":"Feature","geometry":{"type":"Point","coordinates":[139.59211,35.56106]},"properties":{"id":6589,"klass":"Station","name":"Kita-Yamata","opening":2008,"buildstart":2001,"closure":999999,"lines":[{"line":"Green Line","line_url_name":"565-green-line","system":"Yokohama Municipal Subway"}]}}, {"type":"Feature","geometry":{"type":"Point","coordinates":[139.64276,35.43922]},"properties":{"id":6632,"klass":"Station","name":"Ishikawacho","opening":1964,"buildstart":1964,"closure":999999,"lines":[{"line":"Negishi Line","line_url_name":"566-negishi-line","system":"JR East  東日本旅客鉄道"}]}}, {"type":"Feature","geometry":{"type":"Point","coordinates":[139.57868,35.55339]},"properties":{"id":6590,"klass":"Station","name":"Center Kita","opening":2008,"buildstart":2001,"closure":999999,"lines":[{"line":"Green Line","line_url_name":"565-green-line","system":"Yokohama Municipal Subway"}]}}, {"type":"Feature","geometry":{"type":"Point","coordinates":[139.4667,35.39634]},"properties":{"id":6602,"klass":"Station","name":"Shonandai","opening":1999,"buildstart":1999,"closure":999999,"lines":[{"line":"Blue Line","line_url_name":"564-blue-line","system":"Yokohama Municipal Subway"}]}}, {"type":"Feature","geometry":{"type":"Point","coordinates":[139.57481,35.54561]},"properties":{"id":6591,"klass":"Station","name":"Center Minami","opening":2008,"buildstart":2001,"closure":999999,"lines":[{"line":"Green Line","line_url_name":"565-green-line","system":"Yokohama Municipal Subway"}]}}, {"type":"Feature","geometry":{"type":"Point","coordinates":[139.56133,35.53655]},"properties":{"id":6592,"klass":"Station","name":"Tsuzuki-Fureai-no-Oka","opening":2008,"buildstart":2001,"closure":999999,"lines":[{"line":"Green Line","line_url_name":"565-green-line","system":"Yokohama Municipal Subway"}]}}, {"type":"Feature","geometry":{"type":"Point","coordinates":[139.54894,35.52821]},"properties":{"id":6593,"klass":"Station","name":"Kawawacho","opening":2008,"buildstart":2001,"closure":999999,"lines":[{"line":"Green Line","line_url_name":"565-green-line","system":"Yokohama Municipal Subway"}]}}, {"type":"Feature","geometry":{"type":"Point","coordinates":[139.54009,35.51472]},"properties":{"id":6603,"klass":"Station","name":"Nakayama","opening":2008,"buildstart":2001,"closure":999999,"lines":[{"line":"Green Line","line_url_name":"565-green-line","system":"Yokohama Municipal Subway"}]}}, {"type":"Feature","geometry":{"type":"Point","coordinates":[139.56995,35.56299]},"properties":{"id":6604,"klass":"Station","name":"Nakagawa","opening":1993,"buildstart":1993,"closure":999999,"lines":[{"line":"Blue Line","line_url_name":"564-blue-line","system":"Yokohama Municipal Subway"}]}}, {"type":"Feature","geometry":{"type":"Point","coordinates":[139.64624,35.42731]},"properties":{"id":6633,"klass":"Station","name":"Yamate","opening":1964,"buildstart":1964,"closure":999999,"lines":[{"line":"Negishi Line","line_url_name":"566-negishi-line","system":"JR East  東日本旅客鉄道"}]}}, {"type":"Feature","geometry":{"type":"Point","coordinates":[139.61795,35.3999]},"properties":{"id":6628,"klass":"Station","name":"Isogo","opening":1964,"buildstart":1964,"closure":999999,"lines":[{"line":"Negishi Line","line_url_name":"566-negishi-line","system":"JR East  東日本旅客鉄道"}]}}, {"type":"Feature","geometry":{"type":"Point","coordinates":[139.531,35.35349]},"properties":{"id":6630,"klass":"Station","name":"Ofuna","opening":1973,"buildstart":1973,"closure":999999,"lines":[{"line":"Negishi Line","line_url_name":"566-negishi-line","system":"JR East  東日本旅客鉄道"}]}}, {"type":"Feature","geometry":{"type":"Point","coordinates":[139.63556,35.41572]},"properties":{"id":6634,"klass":"Station","name":"Negishi","opening":1964,"buildstart":1964,"closure":999999,"lines":[{"line":"Negishi Line","line_url_name":"566-negishi-line","system":"JR East  東日本旅客鉄道"}]}}, {"type":"Feature","geometry":{"type":"Point","coordinates":[139.61957,35.38656]},"properties":{"id":6635,"klass":"Station","name":"Shin-Sugita","opening":1970,"buildstart":1970,"closure":999999,"lines":[{"line":"Negishi Line","line_url_name":"566-negishi-line","system":"JR East  東日本旅客鉄道"}]}}, {"type":"Feature","geometry":{"type":"Point","coordinates":[139.80063,35.66998]},"properties":{"id":8974,"klass":"Station","name":"Tomiokacho","opening":1914,"buildstart":1914,"closure":1972,"lines":[{"line":"Susaki Line","line_url_name":"798-susaki-line","system":"Tokyo Toden"}]}}, {"type":"Feature","geometry":{"type":"Point","coordinates":[139.62015,35.46543]},"properties":{"id":6596,"klass":"Station","name":"Yokohama","opening":1976,"buildstart":1976,"closure":999999,"lines":[{"line":"Blue Line","line_url_name":"564-blue-line","system":"Yokohama Municipal Subway"}]}}, {"type":"Feature","geometry":{"type":"Point","coordinates":[139.62706,35.47098]},"properties":{"id":6148,"klass":"Station","name":"Kanagawa","opening":1905,"buildstart":1905,"closure":999999,"lines":[{"line":"Keikyu Main Line","line_url_name":"423-keikyu-main-line","system":"Keikyu"}]}}, {"type":"Feature","geometry":{"type":"Point","coordinates":[139.74149,35.61648]},"properties":{"id":6153,"klass":"Station","name":"Shimbamba","opening":1904,"buildstart":1904,"closure":999999,"lines":[{"line":"Keikyu Main Line","line_url_name":"423-keikyu-main-line","system":"Keikyu"}]}}, {"type":"Feature","geometry":{"type":"Point","coordinates":[139.3448,35.59468]},"properties":{"id":6209,"klass":"Station","name":"Hashimoto","opening":1908,"buildstart":1908,"closure":999999,"lines":[{"line":"Yokohama Line","line_url_name":"500-yokohama-line","system":"JR East  東日本旅客鉄道"}]}}, {"type":"Feature","geometry":{"type":"Point","coordinates":[139.73894,35.59867]},"properties":{"id":6156,"klass":"Station","name":"Tachiaigawa","opening":1904,"buildstart":1904,"closure":999999,"lines":[{"line":"Keikyu Main Line","line_url_name":"423-keikyu-main-line","system":"Keikyu"}]}}, {"type":"Feature","geometry":{"type":"Point","coordinates":[139.72836,35.56698]},"properties":{"id":6159,"klass":"Station","name":"Umeyashiki","opening":1901,"buildstart":1901,"closure":999999,"lines":[{"line":"Keikyu Main Line","line_url_name":"423-keikyu-main-line","system":"Keikyu"}]}}, {"type":"Feature","geometry":{"type":"Point","coordinates":[139.70764,35.54065]},"properties":{"id":6162,"klass":"Station","name":"Rokugodote","opening":1906,"buildstart":1906,"closure":999999,"lines":[{"line":"Keikyu Main Line","line_url_name":"423-keikyu-main-line","system":"Keikyu"}]}}, {"type":"Feature","geometry":{"type":"Point","coordinates":[139.34163,35.6399]},"properties":{"id":6212,"klass":"Station","name":"Katakura","opening":1957,"buildstart":1957,"closure":999999,"lines":[{"line":"Yokohama Line","line_url_name":"500-yokohama-line","system":"JR East  東日本旅客鉄道"}]}}, {"type":"Feature","geometry":{"type":"Point","coordinates":[139.67789,35.50733]},"properties":{"id":6165,"klass":"Station","name":"Keikyu-Tsurumi","opening":1905,"buildstart":1905,"closure":999999,"lines":[{"line":"Keikyu Main Line","line_url_name":"423-keikyu-main-line","system":"Keikyu"}]}}, {"type":"Feature","geometry":{"type":"Point","coordinates":[139.65545,35.4871]},"properties":{"id":6168,"klass":"Station","name":"Keikyu-Shinkoyasu","opening":1910,"buildstart":1910,"closure":999999,"lines":[{"line":"Keikyu Main Line","line_url_name":"423-keikyu-main-line","system":"Keikyu"}]}}, {"type":"Feature","geometry":{"type":"Point","coordinates":[139.61849,35.43539]},"properties":{"id":6618,"klass":"Station","name":"Yoshinocho","opening":1972,"buildstart":1972,"closure":999999,"lines":[{"line":"Blue Line","line_url_name":"564-blue-line","system":"Yokohama Municipal Subway"}]}}, {"type":"Feature","geometry":{"type":"Point","coordinates":[139.63456,35.47725]},"properties":{"id":6171,"klass":"Station","name":"Nakakido","opening":1905,"buildstart":1905,"closure":999999,"lines":[{"line":"Keikyu Main Line","line_url_name":"423-keikyu-main-line","system":"Keikyu"}]}}, {"type":"Feature","geometry":{"type":"Point","coordinates":[139.61357,35.43684]},"properties":{"id":6174,"klass":"Station","name":"Minami-Ota","opening":1930,"buildstart":1930,"closure":999999,"lines":[{"line":"Keikyu Main Line","line_url_name":"423-keikyu-main-line","system":"Keikyu"}]}}, {"type":"Feature","geometry":{"type":"Point","coordinates":[139.59668,35.40904]},"properties":{"id":6177,"klass":"Station","name":"Kamiooka","opening":1930,"buildstart":1930,"closure":999999,"lines":[{"line":"Keikyu Main Line","line_url_name":"423-keikyu-main-line","system":"Keikyu"}]}}, {"type":"Feature","geometry":{"type":"Point","coordinates":[139.60995,35.42991]},"properties":{"id":6619,"klass":"Station","name":"Maita","opening":1972,"buildstart":1972,"closure":999999,"lines":[{"line":"Blue Line","line_url_name":"564-blue-line","system":"Yokohama Municipal Subway"}]}}, {"type":"Feature","geometry":{"type":"Point","coordinates":[139.62974,35.36718]},"properties":{"id":6180,"klass":"Station","name":"Keikyu-Tomioka","opening":1930,"buildstart":1930,"closure":999999,"lines":[{"line":"Keikyu Main Line","line_url_name":"423-keikyu-main-line","system":"Keikyu"}]}}, {"type":"Feature","geometry":{"type":"Point","coordinates":[139.62015,35.3314]},"properties":{"id":6183,"klass":"Station","name":"Kanazawa-hakkei","opening":1930,"buildstart":1930,"closure":999999,"lines":[{"line":"Keikyu Main Line","line_url_name":"423-keikyu-main-line","system":"Keikyu"}]}}, {"type":"Feature","geometry":{"type":"Point","coordinates":[139.64297,35.28675]},"properties":{"id":6186,"klass":"Station","name":"Anjinzuka","opening":1934,"buildstart":1934,"closure":999999,"lines":[{"line":"Keikyu Main Line","line_url_name":"423-keikyu-main-line","system":"Keikyu"}]}}, {"type":"Feature","geometry":{"type":"Point","coordinates":[139.60207,35.42322]},"properties":{"id":6620,"klass":"Station","name":"Gumyoji","opening":1972,"buildstart":1972,"closure":999999,"lines":[{"line":"Blue Line","line_url_name":"564-blue-line","system":"Yokohama Municipal Subway"}]}}, {"type":"Feature","geometry":{"type":"Point","coordinates":[139.67069,35.2784]},"properties":{"id":6189,"klass":"Station","name":"Yokosuka-chuo","opening":1930,"buildstart":1930,"closure":999999,"lines":[{"line":"Keikyu Main Line","line_url_name":"423-keikyu-main-line","system":"Keikyu"}]}}, {"type":"Feature","geometry":{"type":"Point","coordinates":[139.69589,35.26091]},"properties":{"id":6192,"klass":"Station","name":"Keikyu-Otsu","opening":1930,"buildstart":1930,"closure":999999,"lines":[{"line":"Keikyu Main Line","line_url_name":"423-keikyu-main-line","system":"Keikyu"}]}}, {"type":"Feature","geometry":{"type":"Point","coordinates":[139.63344,35.47784]},"properties":{"id":6194,"klass":"Station","name":"Higashi-Kanagawa","opening":1908,"buildstart":1908,"closure":999999,"lines":[{"line":"Yokohama Line","line_url_name":"500-yokohama-line","system":"JR East  東日本旅客鉄道"}]}}, {"type":"Feature","geometry":{"type":"Point","coordinates":[139.59078,35.40103]},"properties":{"id":6621,"klass":"Station","name":"Konan-chuo","opening":1976,"buildstart":1976,"closure":999999,"lines":[{"line":"Blue Line","line_url_name":"564-blue-line","system":"Yokohama Municipal Subway"}]}}, {"type":"Feature","geometry":{"type":"Point","coordinates":[139.61726,35.5068]},"properties":{"id":6197,"klass":"Station","name":"Shin-Yokohama","opening":1964,"buildstart":1964,"closure":999999,"lines":[{"line":"Yokohama Line","line_url_name":"500-yokohama-line","system":"JR East  東日本旅客鉄道"}]}}, {"type":"Feature","geometry":{"type":"Point","coordinates":[139.53947,35.51469]},"properties":{"id":6200,"klass":"Station","name":"Nakayama","opening":1908,"buildstart":1908,"closure":999999,"lines":[{"line":"Yokohama Line","line_url_name":"500-yokohama-line","system":"JR East  東日本旅客鉄道"}]}}, {"type":"Feature","geometry":{"type":"Point","coordinates":[139.47302,35.5353]},"properties":{"id":6203,"klass":"Station","name":"Naruse","opening":1979,"buildstart":1979,"closure":999999,"lines":[{"line":"Yokohama Line","line_url_name":"500-yokohama-line","system":"JR East  東日本旅客鉄道"}]}}, {"type":"Feature","geometry":{"type":"Point","coordinates":[139.55851,35.40201]},"properties":{"id":6622,"klass":"Station","name":"Shimonagaya","opening":1985,"buildstart":1985,"closure":999999,"lines":[{"line":"Blue Line","line_url_name":"564-blue-line","system":"Yokohama Municipal Subway"}]}}, {"type":"Feature","geometry":{"type":"Point","coordinates":[139.39503,35.5686]},"properties":{"id":6206,"klass":"Station","name":"Fuchinobe","opening":1908,"buildstart":1908,"closure":999999,"lines":[{"line":"Yokohama Line","line_url_name":"500-yokohama-line","system":"JR East  東日本旅客鉄道"}]}}, {"type":"Feature","geometry":{"type":"Point","coordinates":[139.51852,35.40571]},"properties":{"id":6623,"klass":"Station","name":"Odoriba","opening":1999,"buildstart":1999,"closure":999999,"lines":[{"line":"Blue Line","line_url_name":"564-blue-line","system":"Yokohama Municipal Subway"}]}}, {"type":"Feature","geometry":{"type":"Point","coordinates":[139.51096,35.41132]},"properties":{"id":6624,"klass":"Station","name":"Nakada","opening":1999,"buildstart":1999,"closure":999999,"lines":[{"line":"Blue Line","line_url_name":"564-blue-line","system":"Yokohama Municipal Subway"}]}}, {"type":"Feature","geometry":{"type":"Point","coordinates":[139.50015,35.41432]},"properties":{"id":6625,"klass":"Station","name":"Tateba","opening":1999,"buildstart":1999,"closure":999999,"lines":[{"line":"Blue Line","line_url_name":"564-blue-line","system":"Yokohama Municipal Subway"}]}}, {"type":"Feature","geometry":{"type":"Point","coordinates":[139.48285,35.40364]},"properties":{"id":6626,"klass":"Station","name":"Shimoiida","opening":1999,"buildstart":1999,"closure":999999,"lines":[{"line":"Blue Line","line_url_name":"564-blue-line","system":"Yokohama Municipal Subway"}]}}, {"type":"Feature","geometry":{"type":"Point","coordinates":[139.631,35.45105]},"properties":{"id":6627,"klass":"Station","name":"Sakuragicho","opening":1915,"buildstart":1915,"closure":999999,"lines":[{"line":"Negishi Line","line_url_name":"566-negishi-line","system":"JR East  東日本旅客鉄道"}]}}, {"type":"Feature","geometry":{"type":"Point","coordinates":[139.59678,35.37877]},"properties":{"id":6629,"klass":"Station","name":"Yokodai","opening":1970,"buildstart":1970,"closure":999999,"lines":[{"line":"Negishi Line","line_url_name":"566-negishi-line","system":"JR East  東日本旅客鉄道"}]}}, {"type":"Feature","geometry":{"type":"Point","coordinates":[139.99843,35.77952]},"properties":{"id":6214,"klass":"Station","name":"Shin-Kamagaya","opening":1991,"buildstart":1991,"closure":999999,"lines":[{"line":"Hokuso Line  北総線","line_url_name":"499-hokuso-line","system":"Hokuso Railway  北総鉄道"}]}}, {"type":"Feature","geometry":{"type":"Point","coordinates":[139.57669,35.37528]},"properties":{"id":6636,"klass":"Station","name":"Konandai","opening":1973,"buildstart":1973,"closure":999999,"lines":[{"line":"Negishi Line","line_url_name":"566-negishi-line","system":"JR East  東日本旅客鉄道"}]}}, {"type":"Feature","geometry":{"type":"Point","coordinates":[139.5502,35.36791]},"properties":{"id":6637,"klass":"Station","name":"Hongodai","opening":1973,"buildstart":1973,"closure":999999,"lines":[{"line":"Negishi Line","line_url_name":"566-negishi-line","system":"JR East  東日本旅客鉄道"}]}}, {"type":"Feature","geometry":{"type":"Point","coordinates":[140.07625,35.78694]},"properties":{"id":6215,"klass":"Station","name":"Komuro","opening":1979,"buildstart":1979,"closure":999999,"lines":[{"line":"Hokuso Line  北総線","line_url_name":"499-hokuso-line","system":"Hokuso Railway  北総鉄道"}]}}, {"type":"Feature","geometry":{"type":"Point","coordinates":[140.11656,35.80025]},"properties":{"id":6216,"klass":"Station","name":"Chiba Newtown Chuo","opening":1984,"buildstart":1984,"closure":999999,"lines":[{"line":"Hokuso Line  北総線","line_url_name":"499-hokuso-line","system":"Hokuso Railway  北総鉄道"}]}}, {"type":"Feature","geometry":{"type":"Point","coordinates":[140.34145,35.54595]},"properties":{"id":10358,"klass":"Station","name":"Fukutawara","opening":1938,"buildstart":1938,"closure":999999,"lines":[{"line":"Togane Line","line_url_name":"894-togane-line","system":"JR East  東日本旅客鉄道"}]}}, {"type":"Feature","geometry":{"type":"Point","coordinates":[139.99203,35.77747]},"properties":{"id":6217,"klass":"Station","name":"Kita-Hatsutomi","opening":1979,"buildstart":1979,"closure":1991,"lines":[{"line":"Hokuso Line  北総線","line_url_name":"499-hokuso-line","system":"Hokuso Railway  北総鉄道"}]}}, {"type":"Feature","geometry":{"type":"Point","coordinates":[140.20347,35.7876]},"properties":{"id":6220,"klass":"Station","name":"Inba-Nihon-Idai","opening":2000,"buildstart":2000,"closure":999999,"lines":[{"line":"Hokuso Line  北総線","line_url_name":"499-hokuso-line","system":"Hokuso Railway  北総鉄道"}]}}, {"type":"Feature","geometry":{"type":"Point","coordinates":[139.86734,35.75099]},"properties":{"id":6218,"klass":"Station","name":"Keisei-Takasago","opening":1991,"buildstart":1991,"closure":999999,"lines":[{"line":"Hokuso Line  北総線","line_url_name":"499-hokuso-line","system":"Hokuso Railway  北総鉄道"}]}}, {"type":"Feature","geometry":{"type":"Point","coordinates":[140.16717,35.80359]},"properties":{"id":6219,"klass":"Station","name":"Inzai-Makinohara","opening":1995,"buildstart":1995,"closure":999999,"lines":[{"line":"Hokuso Line  北総線","line_url_name":"499-hokuso-line","system":"Hokuso Railway  北総鉄道"}]}}, {"type":"Feature","geometry":{"type":"Point","coordinates":[139.7764,35.70766]},"properties":{"id":9318,"klass":"Station","name":"Okachimachi-ekimae","opening":1905,"buildstart":1905,"closure":1971,"lines":[{"line":"Umayabashi Line","line_url_name":"829-umayabashi-line","system":"Tokyo Toden"}]}}, {"type":"Feature","geometry":{"type":"Point","coordinates":[139.77943,35.70732]},"properties":{"id":9319,"klass":"Station","name":"Higashi-Ueno-itchome","opening":1905,"buildstart":1905,"closure":1971,"lines":[{"line":"Umayabashi Line","line_url_name":"829-umayabashi-line","system":"Tokyo Toden"}]}}, {"type":"Feature","geometry":{"type":"Point","coordinates":[139.78177,35.70706]},"properties":{"id":9320,"klass":"Station","name":"Motoasakusa-itchome","opening":1905,"buildstart":1905,"closure":1971,"lines":[{"line":"Umayabashi Line","line_url_name":"829-umayabashi-line","system":"Tokyo Toden"}]}}, {"type":"Feature","geometry":{"type":"Point","coordinates":[139.42009,35.67127]},"properties":{"id":6297,"klass":"Station","name":"Manganji","opening":2000,"buildstart":2000,"closure":999999,"lines":[{"line":"Tama Toshi Monorail Line","line_url_name":"546-tama-toshi-monorail-line","system":"Tokyo Tama Intercity Monorail"}]}}, {"type":"Feature","geometry":{"type":"Point","coordinates":[139.87945,35.75108]},"properties":{"id":6221,"klass":"Station","name":"Shin-Shibamata","opening":1991,"buildstart":1991,"closure":999999,"lines":[{"line":"Hokuso Line  北総線","line_url_name":"499-hokuso-line","system":"Hokuso Railway  北総鉄道"}]}}, {"type":"Feature","geometry":{"type":"Point","coordinates":[139.48091,35.60599]},"properties":{"id":6274,"klass":"Station","name":"Kurihira","opening":1974,"buildstart":1974,"closure":999999,"lines":[{"line":"Tama Line","line_url_name":"429-tama-line","system":"Odakyu"}]}}, {"type":"Feature","geometry":{"type":"Point","coordinates":[139.89967,35.75726]},"properties":{"id":6222,"klass":"Station","name":"Yagiri","opening":1991,"buildstart":1991,"closure":999999,"lines":[{"line":"Hokuso Line  北総線","line_url_name":"499-hokuso-line","system":"Hokuso Railway  北総鉄道"}]}}, {"type":"Feature","geometry":{"type":"Point","coordinates":[139.91394,35.76295]},"properties":{"id":6223,"klass":"Station","name":"Kita-Kokubun","opening":1991,"buildstart":1991,"closure":999999,"lines":[{"line":"Hokuso Line  北総線","line_url_name":"499-hokuso-line","system":"Hokuso Railway  北総鉄道"}]}}, {"type":"Feature","geometry":{"type":"Point","coordinates":[139.93075,35.76528]},"properties":{"id":6224,"klass":"Station","name":"Akiyama","opening":1991,"buildstart":1991,"closure":999999,"lines":[{"line":"Hokuso Line  北総線","line_url_name":"499-hokuso-line","system":"Hokuso Railway  北総鉄道"}]}}, {"type":"Feature","geometry":{"type":"Point","coordinates":[139.49361,35.60014]},"properties":{"id":6275,"klass":"Station","name":"Satsukidai","opening":1974,"buildstart":1974,"closure":999999,"lines":[{"line":"Tama Line","line_url_name":"429-tama-line","system":"Odakyu"}]}}, {"type":"Feature","geometry":{"type":"Point","coordinates":[139.94316,35.76996]},"properties":{"id":6225,"klass":"Station","name":"Higashi-Matsudo","opening":1991,"buildstart":1991,"closure":999999,"lines":[{"line":"Hokuso Line  北総線","line_url_name":"499-hokuso-line","system":"Hokuso Railway  北総鉄道"}]}}, {"type":"Feature","geometry":{"type":"Point","coordinates":[140.20348,35.78763]},"properties":{"id":6229,"klass":"Station","name":"Inba-Nihon-Idai","opening":2010,"buildstart":2010,"closure":999999,"lines":[{"line":"Narita Airport Line (Narita Sky Access)","line_url_name":"427-narita-sky-access","system":"Keisei"}]}}, {"type":"Feature","geometry":{"type":"Point","coordinates":[139.418,35.73181]},"properties":{"id":6305,"klass":"Station","name":"Tamagawa-Josui","opening":1998,"buildstart":1998,"closure":999999,"lines":[{"line":"Tama Toshi Monorail Line","line_url_name":"546-tama-toshi-monorail-line","system":"Tokyo Tama Intercity Monorail"}]}}, {"type":"Feature","geometry":{"type":"Point","coordinates":[139.77124,35.72808]},"properties":{"id":6231,"klass":"Station","name":"Nippori","opening":2010,"buildstart":2010,"closure":999999,"lines":[{"line":"Narita Airport Line (Narita Sky Access)","line_url_name":"427-narita-sky-access","system":"Keisei"}]}}, {"type":"Feature","geometry":{"type":"Point","coordinates":[139.51739,35.63303]},"properties":{"id":6278,"klass":"Station","name":"Keio-Yomiuri-Land","opening":1971,"buildstart":1971,"closure":999999,"lines":[{"line":"Sagamihara Line","line_url_name":"545-sagamihara-line","system":"Keio"}]}}, {"type":"Feature","geometry":{"type":"Point","coordinates":[139.85609,35.7457]},"properties":{"id":6232,"klass":"Station","name":"Aoto","opening":2010,"buildstart":2010,"closure":999999,"lines":[{"line":"Narita Airport Line (Narita Sky Access)","line_url_name":"427-narita-sky-access","system":"Keisei"}]}}, {"type":"Feature","geometry":{"type":"Point","coordinates":[139.86733,35.75105]},"properties":{"id":5666,"klass":"Station","name":"Keisei Takasago","opening":1913,"buildstart":1913,"closure":999999,"lines":[{"line":"Kanamachi Line","line_url_name":"498-kanamachi-line","system":"Keisei"}]}}, {"type":"Feature","geometry":{"type":"Point","coordinates":[139.40919,35.67832]},"properties":{"id":6298,"klass":"Station","name":"Koshu-Kaido","opening":2000,"buildstart":2000,"closure":999999,"lines":[{"line":"Tama Toshi Monorail Line","line_url_name":"546-tama-toshi-monorail-line","system":"Tokyo Tama Intercity Monorail"}]}}, {"type":"Feature","geometry":{"type":"Point","coordinates":[139.32611,35.8526]},"properties":{"id":6250,"klass":"Station","name":"Higashi-Hanno","opening":1931,"buildstart":1931,"closure":999999,"lines":[{"line":"Hachiko Line  八高線","line_url_name":"532-hachiko-line","system":"JR East  東日本旅客鉄道"}]}}, {"type":"Feature","geometry":{"type":"Point","coordinates":[139.37974,35.6141]},"properties":{"id":6280,"klass":"Station","name":"Minami-Osawa","opening":1988,"buildstart":1988,"closure":999999,"lines":[{"line":"Sagamihara Line","line_url_name":"545-sagamihara-line","system":"Keio"}]}}, {"type":"Feature","geometry":{"type":"Point","coordinates":[139.33891,35.65569]},"properties":{"id":6251,"klass":"Station","name":"Hachioji","opening":1931,"buildstart":1931,"closure":999999,"lines":[{"line":"Hachiko Line  八高線","line_url_name":"532-hachiko-line","system":"JR East  東日本旅客鉄道"}]}}, {"type":"Feature","geometry":{"type":"Point","coordinates":[139.34366,35.72147]},"properties":{"id":6256,"klass":"Station","name":"Haijima","opening":1931,"buildstart":1931,"closure":999999,"lines":[{"line":"Hachiko Line  八高線","line_url_name":"532-hachiko-line","system":"JR East  東日本旅客鉄道"}]}}, {"type":"Feature","geometry":{"type":"Point","coordinates":[139.33611,35.74592]},"properties":{"id":6257,"klass":"Station","name":"Higashi-Fussa","opening":1931,"buildstart":1931,"closure":999999,"lines":[{"line":"Hachiko Line  八高線","line_url_name":"532-hachiko-line","system":"JR East  東日本旅客鉄道"}]}}, {"type":"Feature","geometry":{"type":"Point","coordinates":[139.41579,35.74605]},"properties":{"id":6288,"klass":"Station","name":"Kamikitadai","opening":1998,"buildstart":1998,"closure":999999,"lines":[{"line":"Tama Toshi Monorail Line","line_url_name":"546-tama-toshi-monorail-line","system":"Tokyo Tama Intercity Monorail"}]}}, {"type":"Feature","geometry":{"type":"Point","coordinates":[139.34671,35.77136]},"properties":{"id":6258,"klass":"Station","name":"Hakonegasaki","opening":1931,"buildstart":1931,"closure":999999,"lines":[{"line":"Hachiko Line  八高線","line_url_name":"532-hachiko-line","system":"JR East  東日本旅客鉄道"}]}}, {"type":"Feature","geometry":{"type":"Point","coordinates":[139.50747,35.60392]},"properties":{"id":6268,"klass":"Station","name":"Shin-Yurigaoka","opening":1974,"buildstart":1974,"closure":999999,"lines":[{"line":"Tama Line","line_url_name":"429-tama-line","system":"Odakyu"}]}}, {"type":"Feature","geometry":{"type":"Point","coordinates":[139.44821,35.62994]},"properties":{"id":6269,"klass":"Station","name":"Odakyu-Nagayama","opening":1974,"buildstart":1974,"closure":999999,"lines":[{"line":"Tama Line","line_url_name":"429-tama-line","system":"Odakyu"}]}}, {"type":"Feature","geometry":{"type":"Point","coordinates":[139.41246,35.69588]},"properties":{"id":6289,"klass":"Station","name":"Tachikawa-Minami","opening":1998,"buildstart":1998,"closure":999999,"lines":[{"line":"Tama Toshi Monorail Line","line_url_name":"546-tama-toshi-monorail-line","system":"Tokyo Tama Intercity Monorail"}]}}, {"type":"Feature","geometry":{"type":"Point","coordinates":[139.41165,35.61667]},"properties":{"id":6271,"klass":"Station","name":"Karakida","opening":1990,"buildstart":1990,"closure":999999,"lines":[{"line":"Tama Line","line_url_name":"429-tama-line","system":"Odakyu"}]}}, {"type":"Feature","geometry":{"type":"Point","coordinates":[139.46462,35.61875]},"properties":{"id":6272,"klass":"Station","name":"Haruhino","opening":2004,"buildstart":2004,"closure":999999,"lines":[{"line":"Tama Line","line_url_name":"429-tama-line","system":"Odakyu"}]}}, {"type":"Feature","geometry":{"type":"Point","coordinates":[139.40943,35.68997]},"properties":{"id":6299,"klass":"Station","name":"Shibasaki-Taiikukan","opening":2000,"buildstart":2000,"closure":999999,"lines":[{"line":"Tama Toshi Monorail Line","line_url_name":"546-tama-toshi-monorail-line","system":"Tokyo Tama Intercity Monorail"}]}}, {"type":"Feature","geometry":{"type":"Point","coordinates":[139.47079,35.61311]},"properties":{"id":6273,"klass":"Station","name":"Kurokawa","opening":1974,"buildstart":1974,"closure":999999,"lines":[{"line":"Tama Line","line_url_name":"429-tama-line","system":"Odakyu"}]}}, {"type":"Feature","geometry":{"type":"Point","coordinates":[139.42223,35.63196]},"properties":{"id":6291,"klass":"Station","name":"Matsugaya","opening":2000,"buildstart":2000,"closure":999999,"lines":[{"line":"Tama Toshi Monorail Line","line_url_name":"546-tama-toshi-monorail-line","system":"Tokyo Tama Intercity Monorail"}]}}, {"type":"Feature","geometry":{"type":"Point","coordinates":[139.41639,35.63692]},"properties":{"id":6292,"klass":"Station","name":"Otsuka Teikyo-Daigaku","opening":2000,"buildstart":2000,"closure":999999,"lines":[{"line":"Tama Toshi Monorail Line","line_url_name":"546-tama-toshi-monorail-line","system":"Tokyo Tama Intercity Monorail"}]}}, {"type":"Feature","geometry":{"type":"Point","coordinates":[139.6756,35.50085]},"properties":{"id":6701,"klass":"Station","name":"Kokudo","opening":1930,"buildstart":1930,"closure":999999,"lines":[{"line":"Tsurumi Line","line_url_name":"567-tsurumi-line","system":"JR East  東日本旅客鉄道"}]}}, {"type":"Feature","geometry":{"type":"Point","coordinates":[139.40845,35.64202]},"properties":{"id":6293,"klass":"Station","name":"Chuo-Daigaku-Meisei-Daigaku","opening":2000,"buildstart":2000,"closure":999999,"lines":[{"line":"Tama Toshi Monorail Line","line_url_name":"546-tama-toshi-monorail-line","system":"Tokyo Tama Intercity Monorail"}]}}, {"type":"Feature","geometry":{"type":"Point","coordinates":[139.41255,35.69927]},"properties":{"id":6300,"klass":"Station","name":"Tachikawa-Kita","opening":1998,"buildstart":1998,"closure":999999,"lines":[{"line":"Tama Toshi Monorail Line","line_url_name":"546-tama-toshi-monorail-line","system":"Tokyo Tama Intercity Monorail"}]}}, {"type":"Feature","geometry":{"type":"Point","coordinates":[139.40375,35.64845]},"properties":{"id":6294,"klass":"Station","name":"Tama-Dobutsukoen","opening":2000,"buildstart":2000,"closure":999999,"lines":[{"line":"Tama Toshi Monorail Line","line_url_name":"546-tama-toshi-monorail-line","system":"Tokyo Tama Intercity Monorail"}]}}, {"type":"Feature","geometry":{"type":"Point","coordinates":[139.4108,35.65539]},"properties":{"id":6295,"klass":"Station","name":"Hodokubo","opening":2000,"buildstart":2000,"closure":999999,"lines":[{"line":"Tama Toshi Monorail Line","line_url_name":"546-tama-toshi-monorail-line","system":"Tokyo Tama Intercity Monorail"}]}}, {"type":"Feature","geometry":{"type":"Point","coordinates":[139.41671,35.73877]},"properties":{"id":6306,"klass":"Station","name":"Sakura-Kaido","opening":1998,"buildstart":1998,"closure":999999,"lines":[{"line":"Tama Toshi Monorail Line","line_url_name":"546-tama-toshi-monorail-line","system":"Tokyo Tama Intercity Monorail"}]}}, {"type":"Feature","geometry":{"type":"Point","coordinates":[139.41529,35.66152]},"properties":{"id":6296,"klass":"Station","name":"Takahatafudo","opening":2000,"buildstart":2000,"closure":999999,"lines":[{"line":"Tama Toshi Monorail Line","line_url_name":"546-tama-toshi-monorail-line","system":"Tokyo Tama Intercity Monorail"}]}}, {"type":"Feature","geometry":{"type":"Point","coordinates":[139.41329,35.71016]},"properties":{"id":6301,"klass":"Station","name":"Takamatsu","opening":1998,"buildstart":1998,"closure":999999,"lines":[{"line":"Tama Toshi Monorail Line","line_url_name":"546-tama-toshi-monorail-line","system":"Tokyo Tama Intercity Monorail"}]}}, {"type":"Feature","geometry":{"type":"Point","coordinates":[139.6894,35.49576]},"properties":{"id":6697,"klass":"Station","name":"Bentembashi","opening":1930,"buildstart":1930,"closure":999999,"lines":[{"line":"Tsurumi Line","line_url_name":"567-tsurumi-line","system":"JR East  東日本旅客鉄道"}]}}, {"type":"Feature","geometry":{"type":"Point","coordinates":[139.41714,35.71439]},